[{"name": "\uc989\uc11d\ucd1d\uac01\uc190\uce7c\uad6d\uc218", "type": "\uad6d\uc218", "star": 3.8, "reply": 174, "review": 139, "tvshow": "", "address": "\uacbd\uae30 \uc6a9\uc778\uc2dc \uae30\ud765\uad6c \uc2e0\uad6c\ub85c12\ubc88\uae38 6", "lat": "37.2731418965976", "lng": "127.110185238679"}, {"name": "\uc7a5\uc218\ucd0c", "type": "\ud55c\uc815\uc2dd", "star": 3.5, "reply": 12, "review": 46, "tvshow": "", "address": "\uacbd\uae30 \uc6a9\uc778\uc2dc \uae30\ud765\uad6c \uc6a9\uad6c\ub300\ub85c2145\ubc88\uae38 3", "lat": "37.2792731728344", "lng": "127.104861149745"}, {"name": "\uae30\ud765\uc22f\ubd88\ub2ed\uac08\ube44", "type": "\ub2ed\uc694\ub9ac", "star": 5.0, "reply": 6, "review": 35, "tvshow": "", "address": "\uacbd\uae30 \uc6a9\uc778\uc2dc \uae30\ud765\uad6c \uad6c\uac08\ub85c60\ubc88\uae38 19 111, 112\ud638", "lat": "37.2799336853557", "lng": "127.11350090802"}, {"name": "\uc2a4\ud3ec\ud2b8\ub77c\uc774\ud2b8\ucee4\ud53c \uae30\ud765\uc810", "type": "\uce74\ud398", "star": 4.2, "reply": 6, "review": 34, "tvshow": "", "address": "\uacbd\uae30 \uc6a9\uc778\uc2dc \uae30\ud765\uad6c \uc2e0\uad6c\ub85c12\ubc88\uae38 32 1\uce35", "lat": "37.2746276939775", "lng": "127.112692969325"}, {"name": "\ubc84\uac70\ud0b9 \uc6a9\uc778\uc2e0\uac08\uc810", "type": "\ud328\uc2a4\ud2b8\ud478\ub4dc", "star": 3.8, "reply": 13, "review": 12, "tvshow": "", "address": "\uacbd\uae30 \uc6a9\uc778\uc2dc \uae30\ud765\uad6c \uc911\ubd80\ub300\ub85c 375 \ub86f\ub370\ub9c8\ud2b8 1\uce35", "lat": "37.2722657499658", "lng": "127.108597935135"}, {"name": "\uc2a4\uc2dc\uace0\uba54", "type": "\ucd08\ubc25,\ub864", "star": 4.5, "reply": 6, "review": 9, "tvshow": "", "address": "\uacbd\uae30 \uc6a9\uc778\uc2dc \uae30\ud765\uad6c \uad6c\uac08\ub85c60\ubc88\uae38 19", "lat": "37.2799336853557", "lng": "127.11350090802"}, {"name": "\uc2a4\uc2dc\ud604", "type": "\ucd08\ubc25,\ub864", "star": 4.3, "reply": 6, "review": 15, "tvshow": "", "address": "\uacbd\uae30 \uc6a9\uc778\uc2dc \uae30\ud765\uad6c \uc2e0\uac08\ub85c58\ubc88\uae38 33", "lat": "37.2731365555763", "lng": "127.109239827677"}, {"name": "\uad6c\uac08\ube0c\ub808\ub4dc\ub7a9", "type": "\uc81c\uacfc,\ubca0\uc774\ucee4\ub9ac", "star": 4.6, "reply": 10, "review": 34, "tvshow": "", "address": "\uacbd\uae30 \uc6a9\uc778\uc2dc \uae30\ud765\uad6c \uad6c\uac08\ub85c 55 JJ\ud50c\ub77c\uc790 1\uce35", "lat": "37.2791028333897", "lng": "127.110649583259"}, {"name": "\uc640\ud50c\ub300\ud559 \uae30\ud765\uad6c\uccad\ucea0\ud37c\uc2a4", "type": "\uc81c\uacfc,\ubca0\uc774\ucee4\ub9ac", "star": 5.0, "reply": 5, "review": 8, "tvshow": "", "address": "\uacbd\uae30 \uc6a9\uc778\uc2dc \uae30\ud765\uad6c \uad6c\uac08\ub85c 55", "lat": "37.2791028333897", "lng": "127.110649583259"}, {"name": "\ucd94\uc624\uc815\ub0a8\uc6d0\ucd94\uc5b4\ud0d5 \uc2e0\uac08\uc810", "type": "\ucd94\uc5b4", "star": 3.5, "reply": 10, "review": 16, "tvshow": "", "address": "\uacbd\uae30 \uc6a9\uc778\uc2dc \uae30\ud765\uad6c \uc6a9\uad6c\ub300\ub85c2145\ubc88\uae38 15", "lat": "37.2802715413288", "lng": "127.104740302944"}, {"name": "\uc124\uc545\uce61\ub0c9\uba74", "type": "\ub0c9\uba74", "star": 4.2, "reply": 6, "review": 12, "tvshow": "", "address": "\uacbd\uae30 \uc6a9\uc778\uc2dc \uae30\ud765\uad6c \uc2e0\uad6c\ub85c22\ubc88\uae38 7-1", "lat": "37.2742981506813", "lng": "127.110143063644"}, {"name": "\ubcf8\uac00\uae40\uad11\uc120\ud574\ubb3c\ucc1c", "type": "\ub9e4\uc6b4\ud0d5,\ud574\ubb3c\ud0d5", "star": 3.6, "reply": 5, "review": 6, "tvshow": "", "address": "\uacbd\uae30 \uc6a9\uc778\uc2dc \uae30\ud765\uad6c \uc6a9\uad6c\ub300\ub85c2152\ubc88\uae38 34", "lat": "37.2794916437947", "lng": "127.109862870343"}, {"name": "\uc544\uc18c\ubd80", "type": "\uc77c\ubcf8\uc2dd\uc8fc\uc810", "star": 4.0, "reply": 7, "review": 15, "tvshow": "", "address": "\uacbd\uae30 \uc6a9\uc778\uc2dc \uae30\ud765\uad6c \uad6c\uac08\ub85c72\ubc88\uae38 10-1", "lat": "37.2803971074364", "lng": "127.112633463377"}, {"name": "\ucd98\ucc9c\uba85\ub3d9\ub2ed\uac08\ube44", "type": "\ub2ed\uc694\ub9ac", "star": 4.0, "reply": 7, "review": 5, "tvshow": "", "address": "\uacbd\uae30 \uc6a9\uc778\uc2dc \uae30\ud765\uad6c \uc2e0\uac08\ub85c58\ubc88\uae38 27 2\uce35", "lat": "37.2729413959841", "lng": "127.108744239124"}, {"name": "\ub2e4\ub9b0", "type": "\uc911\ud654\uc694\ub9ac", "star": 4.3, "reply": 7, "review": 6, "tvshow": "", "address": "\uacbd\uae30 \uc6a9\uc778\uc2dc \uae30\ud765\uad6c \uad6c\uac08\ub85c60\ubc88\uae38 9 107\ud638", "lat": "37.2798515300511", "lng": "127.112347030961"}, {"name": "\ud48d\ubbf8\uc2dd\ub2f9", "type": "\ud55c\uc2dd", "star": 3.6, "reply": 5, "review": 5, "tvshow": "", "address": "\uacbd\uae30 \uc6a9\uc778\uc2dc \uae30\ud765\uad6c \uc911\ubd80\ub300\ub85c 390", "lat": "37.2720825845471", "lng": "127.110237813845"}, {"name": "\uc2a4\uc2dc\ub2e4\ubbf8", "type": "\ucd08\ubc25,\ub864", "star": 3.5, "reply": 23, "review": 88, "tvshow": "", "address": "\uacbd\uae30 \uc6a9\uc778\uc2dc \uae30\ud765\uad6c \uae30\ud765\ub85c14\ubc88\uae38 12-16 1\uce35", "lat": "37.2766142015461", "lng": "127.116981278932"}, {"name": "\uba85\uc77c\uc22f\ubd88\ucb48\uafb8\ubbf8", "type": "\ud574\ubb3c,\uc0dd\uc120", "star": 4.4, "reply": 5, "review": 87, "tvshow": "", "address": "\uacbd\uae30 \uc6a9\uc778\uc2dc \uae30\ud765\uad6c \uae30\ud765\ub85c 22 1\uce35", "lat": "37.2781318224449", "lng": "127.116249693556"}, {"name": "\ub530\ubd09\ub3c8\uae4c\uc2a4", "type": "\ub3c8\uae4c\uc2a4,\uc6b0\ub3d9", "star": 4.8, "reply": 16, "review": 49, "tvshow": "", "address": "\uacbd\uae30 \uc6a9\uc778\uc2dc \uae30\ud765\uad6c \uae30\ud765\uc5ed\ub85c 16", "lat": "37.2735010481613", "lng": "127.114741195542"}, {"name": "\uc77c\ud488\ud5a5", "type": "\uc911\ud654\uc694\ub9ac", "star": 3.8, "reply": 26, "review": 15, "tvshow": "", "address": "\uacbd\uae30 \uc6a9\uc778\uc2dc \uae30\ud765\uad6c \uc911\ubd80\ub300\ub85c 521", "lat": "37.2743024890861", "lng": "127.122508592795"}, {"name": "\ud55c\ubc29\uc21c\ub300\uad6d", "type": "\uc21c\ub300", "star": 4.9, "reply": 9, "review": 15, "tvshow": "", "address": "\uacbd\uae30 \uc6a9\uc778\uc2dc \uae30\ud765\uad6c \uae30\ud765\ub85c14\ubc88\uae38 6-1", "lat": "37.2772532826192", "lng": "127.116642761164"}, {"name": "\ud14c\uc774\ube14\uc778\ub354\ub8f8", "type": "\ub514\uc800\ud2b8\uce74\ud398", "star": 4.9, "reply": 7, "review": 28, "tvshow": "", "address": "\uacbd\uae30 \uc6a9\uc778\uc2dc \uae30\ud765\uad6c \uae30\ud765\ub85c14\ubc88\uae38 12-8", "lat": "37.2769771272973", "lng": "127.117267674624"}, {"name": "\ub098\ub098\ud30c\uc2a4\ud0c0", "type": "\uc774\ud0c8\ub9ac\uc548", "star": 4.7, "reply": 10, "review": 17, "tvshow": "", "address": "\uacbd\uae30 \uc6a9\uc778\uc2dc \uae30\ud765\uad6c \uc911\ubd80\ub300\ub85c 555", "lat": "37.2718425032231", "lng": "127.125146391029"}, {"name": "\ud3f4\ubc14\uc14b \uc218\uc6d0\ucee8\ud2b8\ub9ac\ud074\ub7fd\uc810", "type": "\ucee4\ud53c\uc804\ubb38\uc810", "star": 4.8, "reply": 5, "review": 19, "tvshow": "", "address": "\uacbd\uae30 \uc6a9\uc778\uc2dc \uae30\ud765\uad6c \uc911\ubd80\ub300\ub85c 495-1 \uc9c0\ud5581\uce35", "lat": "37.2768545424193", "lng": "127.121246265748"}, {"name": "\ub9c8\ud06c\uc564\uc544\ub871", "type": "\ub514\uc800\ud2b8\uce74\ud398", "star": 5.0, "reply": 7, "review": 14, "tvshow": "", "address": "\uacbd\uae30 \uc6a9\uc778\uc2dc \uae30\ud765\uad6c \uae30\ud765\ub85c 20", "lat": "37.2779903573488", "lng": "127.116251618379"}, {"name": "\ubc14\ub978\uce58\ud0a8 \uc6a9\uc778\uae30\ud765\uc5ed\uc810", "type": "\uce58\ud0a8", "star": 4.6, "reply": 12, "review": 10, "tvshow": "", "address": "\uacbd\uae30 \uc6a9\uc778\uc2dc \uae30\ud765\uad6c \uae30\ud765\uc5ed\ub85c 16 \uc2e0\uc601\uc9c0\uc5d8\uc0c1\uac00 109-1\ud638", "lat": "37.2735010481613", "lng": "127.114741195542"}, {"name": "\ube44\uc564\ube44\ubc84\uac70\uc564\ube44\uc698\ub4dc", "type": "\ud584\ubc84\uac70", "star": 4.8, "reply": 5, "review": 6, "tvshow": "", "address": "\uacbd\uae30 \uc6a9\uc778\uc2dc \uae30\ud765\uad6c \uae30\ud765\uc5ed\ub85c 9", "lat": "37.2749056185563", "lng": "127.11536030605"}, {"name": "\ub3c8\uac00\ub124 \uc61b\ub0a0\uae40\uce58\ub3fc\uc9c0\ucc0c\uac1c \uc2e0\uac08\uc810", "type": "\ucc0c\uac1c,\uc804\uace8", "star": 4.2, "reply": 21, "review": 8, "tvshow": "", "address": "\uacbd\uae30 \uc6a9\uc778\uc2dc \uae30\ud765\uad6c \uad6c\uac08\ub85c72\ubc88\uae38 31", "lat": "37.2809407576286", "lng": "127.11482882763"}, {"name": "\uc624\ub974\ud398", "type": "\uc774\ud0c8\ub9ac\uc548", "star": 3.8, "reply": 27, "review": 28, "tvshow": "", "address": "\uacbd\uae30 \uc6a9\uc778\uc2dc \uae30\ud765\uad6c \uc6a9\uad6c\ub300\ub85c 2181 2\uce35", "lat": "37.282438076347", "lng": "127.105364743386"}, {"name": "\uc608\uac10\ucabd\uac08\ube44 \uad6c\uac08\uc810", "type": "\uac08\ube44", "star": 4.8, "reply": 14, "review": 29, "tvshow": "", "address": "\uacbd\uae30 \uc6a9\uc778\uc2dc \uae30\ud765\uad6c \uad00\uace1\ub85c 56-1", "lat": "37.2827982997384", "lng": "127.112239887774"}, {"name": "\uc81c\uc8fc\ub3c4\ub77d", "type": "\uc721\ub958,\uace0\uae30", "star": 5.0, "reply": 18, "review": 42, "tvshow": "", "address": "\uacbd\uae30 \uc6a9\uc778\uc2dc \uae30\ud765\uad6c \uad00\uace1\ub85c64\ubc88\uae38 4-3", "lat": "37.2824742341696", "lng": "127.112673996147"}, {"name": "\ucc0c\ub9c8\uae30 \uae30\ud765\uad6c\uccad\uc810", "type": "\uc870\uac1c", "star": 4.8, "reply": 8, "review": 11, "tvshow": "", "address": "\uacbd\uae30 \uc6a9\uc778\uc2dc \uae30\ud765\uad6c \uad00\uace1\ub85c64\ubc88\uae38 10-1", "lat": "37.281744990468", "lng": "127.112708541868"}, {"name": "\uc2a4\ud0c0\ubc85\uc2a4 \uc6a9\uc778\uae30\ud765\uad6c\uccad\uc810", "type": "\ucee4\ud53c\uc804\ubb38\uc810", "star": 3.7, "reply": 10, "review": 8, "tvshow": "", "address": "\uacbd\uae30 \uc6a9\uc778\uc2dc \uae30\ud765\uad6c \uad6c\uac08\ub85c 71-18", "lat": "37.281820511223", "lng": "127.110302645471"}, {"name": "\ucb48\uafb8\ubbf8\ub098\ub8e8 \uc9c1\uc601\uc810", "type": "\ud574\ubb3c,\uc0dd\uc120", "star": 4.2, "reply": 13, "review": 13, "tvshow": "", "address": "\uacbd\uae30 \uc6a9\uc778\uc2dc \uae30\ud765\uad6c \uc0c8\ucc9c\ub144\ub85c26\ubc88\uae38 4 \ubcf4\uc740\ube4c\ub529 1\uce35 105\ud638", "lat": "37.2888074269447", "lng": "127.111941620142"}, {"name": "\uc804\ud1b5\ucd98\ucc9c\ub2ed\uac08\ube44", "type": "\ub2ed\uc694\ub9ac", "star": 4.4, "reply": 15, "review": 19, "tvshow": "", "address": "\uacbd\uae30 \uc6a9\uc778\uc2dc \uae30\ud765\uad6c \uad00\uace1\ub85c 64", "lat": "37.2826582730767", "lng": "127.112814097301"}, {"name": "\ud654\uc131\ud1a0\uc885\uc21c\ub300\uad6d", "type": "\uc21c\ub300", "star": 3.8, "reply": 18, "review": 9, "tvshow": "", "address": "\uacbd\uae30 \uc6a9\uc778\uc2dc \uae30\ud765\uad6c \uc6a9\uad6c\ub300\ub85c 2175", "lat": "37.2816988987451", "lng": "127.10542685972"}, {"name": "\uc624\ub9ac\ucd0c", "type": "\uc624\ub9ac", "star": 4.3, "reply": 11, "review": 15, "tvshow": "", "address": "\uacbd\uae30 \uc6a9\uc778\uc2dc \uae30\ud765\uad6c \uad00\uace1\ub85c77\ubc88\uae38 3-1", "lat": "37.2820526095126", "lng": "127.1139276264"}, {"name": "\uae40\uac00\ub124\uc22f\ubd88\ub2ed\uac08\ube44", "type": "\ub2ed\uc694\ub9ac", "star": 3.8, "reply": 5, "review": 12, "tvshow": "", "address": "\uacbd\uae30 \uc6a9\uc778\uc2dc \uae30\ud765\uad6c \uad6c\uac08\ub85c72\ubc88\uae38 23-1", "lat": "37.2809414394954", "lng": "127.114123734278"}, {"name": "\ub450\uba54\uace8\ub9c8\ub298\ubcf4\uc308\uce7c\uad6d\uc218\ub0c9\uba74", "type": "\uc871\ubc1c,\ubcf4\uc308", "star": 4.3, "reply": 6, "review": 13, "tvshow": "", "address": "\uacbd\uae30 \uc6a9\uc778\uc2dc \uae30\ud765\uad6c \uad00\uace1\ub85c64\ubc88\uae38 14-18 2\ud638", "lat": "37.2815926943401", "lng": "127.111779945622"}, {"name": "\ub3c8\ud478\ub300\ub4b7\uace0\uae30 \uad6c\uac08\uc810", "type": "\uc721\ub958,\uace0\uae30", "star": 5.0, "reply": 5, "review": 15, "tvshow": "", "address": "\uacbd\uae30 \uc6a9\uc778\uc2dc \uae30\ud765\uad6c \uad6c\uac08\ub85c 90-1", "lat": "37.2823694608058", "lng": "127.111513733078"}, {"name": "\ub7a8\uc544\uc77c\ub79c\ub4dc \uae30\ud765\uad6c\uccad\uc810", "type": "\uc911\ud654\uc694\ub9ac", "star": 5.0, "reply": 5, "review": 8, "tvshow": "", "address": "\uacbd\uae30 \uc6a9\uc778\uc2dc \uae30\ud765\uad6c \uad6c\uac08\ub85c72\ubc88\uae38 10-1", "lat": "37.2803971074364", "lng": "127.112633463377"}, {"name": "\ud56d\uc544\ub9ac\ubcf4\uc308 \uad6c\uac08\uc810", "type": "\uc871\ubc1c,\ubcf4\uc308", "star": 4.3, "reply": 6, "review": 6, "tvshow": "", "address": "\uacbd\uae30 \uc6a9\uc778\uc2dc \uae30\ud765\uad6c \uad00\uace1\ub85c64\ubc88\uae38 14-6", "lat": "37.2815898110046", "lng": "127.112445913415"}, {"name": "\ucd5c\uace0\uc9d1\uc1a5\ub69c\uaed1\uc0bc\uacb9\uc0b4", "type": "\uc0bc\uacb9\uc0b4", "star": 4.2, "reply": 5, "review": 7, "tvshow": "", "address": "\uacbd\uae30 \uc6a9\uc778\uc2dc \uae30\ud765\uad6c \uad00\uace1\ub85c 83 1\uce35", "lat": "37.2812779223851", "lng": "127.113994002823"}, {"name": "\uc6d0\uc870\ub9c8\ud3ec\uc0dd\uac08\ube44", "type": "\uac08\ube44", "star": 4.9, "reply": 11, "review": 8, "tvshow": "", "address": "\uacbd\uae30 \uc6a9\uc778\uc2dc \uae30\ud765\uad6c \uad00\uace1\ub85c 79-1", "lat": "37.281503812327", "lng": "127.113994569033"}, {"name": "\uc57c\ub07c\ub2c8\uafb8", "type": "\uac08\ube44", "star": 3.8, "reply": 5, "review": 8, "tvshow": "", "address": "\uacbd\uae30 \uc6a9\uc778\uc2dc \uae30\ud765\uad6c \uad6c\uac08\ub85c 92-1", "lat": "37.2825784891093", "lng": "127.111527234807"}, {"name": "\uad6c\uac08\ud68c\uc0ac\ub791", "type": "\uc77c\uc2dd\uc9d1", "star": 4.4, "reply": 5, "review": 14, "tvshow": "", "address": "\uacbd\uae30 \uc6a9\uc778\uc2dc \uae30\ud765\uad6c \uad6c\uac08\ub85c 86", "lat": "37.2819337131357", "lng": "127.111519292105"}, {"name": "\uc6d0\ud560\uba38\ub2c8\ubcf4\uc308\uc871\ubc1c \uc6a9\uc778\uc2e0\uac08\uc810", "type": "\uc871\ubc1c,\ubcf4\uc308", "star": 4.6, "reply": 5, "review": 5, "tvshow": "", "address": "\uacbd\uae30 \uc6a9\uc778\uc2dc \uae30\ud765\uad6c \uad6c\uac08\ub85c 74 207\ud638", "lat": "37.2811435740735", "lng": "127.111824836979"}, {"name": "\ucee4\ud53c\ubca0\ub974\ub514", "type": "\ucee4\ud53c\uc804\ubb38\uc810", "star": 3.8, "reply": 5, "review": 6, "tvshow": "", "address": "\uacbd\uae30 \uc6a9\uc778\uc2dc \uae30\ud765\uad6c \uad00\uace1\ub85c64\ubc88\uae38 14-2", "lat": "37.2815916338466", "lng": "127.112708313182"}, {"name": "\uc2a4\ud0c0\ubc85\uc2a4 \uae30\ud765\uc5edAK R\uc810", "type": "\ucee4\ud53c\uc804\ubb38\uc810", "star": 3.9, "reply": 17, "review": 30, "tvshow": "", "address": "\uacbd\uae30 \uc6a9\uc778\uc2dc \uae30\ud765\uad6c \uad6c\uac08\ub3d9 227-26 \uae30\ud765\uc5ed \ud790\uc2a4\ud14c\uc774\ud2b8", "lat": 37.2744222515385, "lng": 127.117789245182}, {"name": "\uba54\uc774\ud0c4 AK&\uae30\ud765\uc810", "type": "\uc911\ud654\uc694\ub9ac", "star": 3.6, "reply": 22, "review": 90, "tvshow": "", "address": "\uacbd\uae30 \uc6a9\uc778\uc2dc \uae30\ud765\uad6c \uad6c\uac08\ub3d9 227-26 4\uce35", "lat": 37.2746222515385, "lng": 127.117989245182}, {"name": "\ub450\ub07c\ub5a1\ubcf6\uc774 AK&\uae30\ud765\uc810", "type": "\ub5a1\ubcf6\uc774", "star": 4.0, "reply": 7, "review": 14, "tvshow": "", "address": "\uacbd\uae30 \uc6a9\uc778\uc2dc \uae30\ud765\uad6c \uad6c\uac08\ub3d9 227-26 AK\ud50c\ub77c\uc790 4\uce35", "lat": 37.2748222515385, "lng": 127.118189245182}]