[
 {
  "name": "소장식물전",
  "type": "카페",
  "star": 3.7,
  "reply": 15,
  "review": 95,
  "tvshow": "",
  "address": "서울 강서구 공항대로2길 36",
  "lat": "37.559841313670255",
  "lng": "126.8085221606283",
  "url": "https://place.map.kakao.com/m/1771238411",
  "category": [
   "음식점 ",
   " 카페"
  ]
 },
 {
  "name": "마포참치가 본점",
  "type": "참치회",
  "star": 3.6,
  "reply": 18,
  "review": 23,
  "tvshow": "",
  "address": "서울 강서구 공항대로 18-1 이스카이빌딩 2층",
  "lat": "37.56094697052985",
  "lng": "126.80916220209956",
  "url": "https://place.map.kakao.com/m/847062931",
  "category": [
   "음식점 ",
   " 일식 ",
   " 참치회"
  ]
 },
 {
  "name": "텐야",
  "type": "일식",
  "star": 4.4,
  "reply": 13,
  "review": 32,
  "tvshow": "",
  "address": "서울 강서구 방화동로5길 22",
  "lat": "37.5645199538779",
  "lng": "126.810054055877",
  "url": "https://place.map.kakao.com/m/94635423",
  "category": [
   "음식점 ",
   " 일식"
  ]
 },
 {
  "name": "동대문 곱창",
  "type": "곱창,막창",
  "star": 4.7,
  "reply": 18,
  "review": 21,
  "tvshow": "",
  "address": "서울 강서구 공항대로3길 29",
  "lat": "37.5628805280101",
  "lng": "126.810293641885",
  "url": "https://place.map.kakao.com/m/15617211",
  "category": [
   "음식점 ",
   " 한식 ",
   " 육류,고기 ",
   " 곱창,막창"
  ]
 },
 {
  "name": "황소곱창",
  "type": "곱창,막창",
  "star": 4.1,
  "reply": 20,
  "review": 37,
  "tvshow": "",
  "address": "서울 강서구 송정로 63 1층",
  "lat": "37.56036593796706",
  "lng": "126.8097884411781",
  "url": "https://place.map.kakao.com/m/24199436",
  "category": [
   "음식점 ",
   " 한식 ",
   " 육류,고기 ",
   " 곱창,막창"
  ]
 },
 {
  "name": "온더보더 롯데몰김포공항점",
  "type": "멕시칸,브라질",
  "star": 3.8,
  "reply": 13,
  "review": 92,
  "tvshow": "",
  "address": "서울 강서구 하늘길 38 롯데몰 김포공항점 GF층",
  "lat": "37.5630487286926",
  "lng": "126.802967902281",
  "url": "https://place.map.kakao.com/m/1745078333",
  "category": [
   "음식점 ",
   " 양식 ",
   " 멕시칸,브라질 ",
   " 온더보더"
  ]
 },
 {
  "name": "칼스토랑",
  "type": "국수",
  "star": 4.3,
  "reply": 33,
  "review": 98,
  "tvshow": "tv소개",
  "address": "서울 강서구 방화대로6라길 2 1층",
  "lat": "37.5551233203307",
  "lng": "126.818552281454",
  "url": "https://place.map.kakao.com/m/485984166",
  "category": [
   "음식점 ",
   " 한식 ",
   " 국수"
  ]
 },
 {
  "name": "위카페",
  "type": "커피전문점",
  "star": 4.4,
  "reply": 51,
  "review": 61,
  "tvshow": "tv소개",
  "address": "서울 강서구 강서로47길 169 웨스트엔드아트센터 1층",
  "lat": "37.553523615405204",
  "lng": "126.82665802236323",
  "url": "https://place.map.kakao.com/m/1555265873",
  "category": [
   "음식점 ",
   " 카페 ",
   " 커피전문점"
  ]
 },
 {
  "name": "타르데마베이커리",
  "type": "제과,베이커리",
  "star": 3.8,
  "reply": 37,
  "review": 80,
  "tvshow": "",
  "address": "서울 강서구 강서로46길 9 1층",
  "lat": "37.5508974407022",
  "lng": "126.836940741031",
  "url": "https://place.map.kakao.com/m/1975813522",
  "category": [
   "음식점 ",
   " 간식 ",
   " 제과,베이커리"
  ]
 },
 {
  "name": "발산삼계탕",
  "type": "삼계탕",
  "star": 3.7,
  "reply": 108,
  "review": 103,
  "tvshow": "",
  "address": "서울 강서구 강서로 344",
  "lat": "37.5562830170175",
  "lng": "126.837825348799",
  "url": "https://place.map.kakao.com/m/8382068",
  "category": [
   "음식점 ",
   " 한식 ",
   " 육류,고기 ",
   " 닭요리 ",
   " 삼계탕"
  ]
 },
 {
  "name": "청산별곡 발산점",
  "type": "한정식",
  "star": 3.5,
  "reply": 49,
  "review": 83,
  "tvshow": "",
  "address": "서울 강서구 공항대로 290 순봉빌딩 2층 207호",
  "lat": "37.55817649181609",
  "lng": "126.83949627023378",
  "url": "https://place.map.kakao.com/m/26345855",
  "category": [
   "음식점 ",
   " 한식 ",
   " 한정식"
  ]
 },
 {
  "name": "브루클린커피",
  "type": "커피전문점",
  "star": 3.7,
  "reply": 31,
  "review": 116,
  "tvshow": "",
  "address": "서울 강서구 강서로52길 16 1층",
  "lat": "37.55759816261462",
  "lng": "126.83891578352538",
  "url": "https://place.map.kakao.com/m/851969193",
  "category": [
   "음식점 ",
   " 카페 ",
   " 커피전문점"
  ]
 },
 {
  "name": "맹순이꽃게아구전문점",
  "type": "아구",
  "star": 3.9,
  "reply": 51,
  "review": 35,
  "tvshow": "",
  "address": "서울 강서구 공항대로 272 강림빌딩 2층",
  "lat": "37.558073201437814",
  "lng": "126.83775582624037",
  "url": "https://place.map.kakao.com/m/26861488",
  "category": [
   "음식점 ",
   " 한식 ",
   " 해물,생선 ",
   " 아구"
  ]
 },
 {
  "name": "이치방라멘",
  "type": "일본식라면",
  "star": 4.5,
  "reply": 17,
  "review": 44,
  "tvshow": "",
  "address": "서울 강서구 강서로 271",
  "lat": "37.55000227451404",
  "lng": "126.8359468391007",
  "url": "https://place.map.kakao.com/m/313554107",
  "category": [
   "음식점 ",
   " 일식 ",
   " 일본식라면"
  ]
 },
 {
  "name": "대문안감자탕&설렁탕 발산직영점",
  "type": "",
  "star": 3.7,
  "reply": 19,
  "review": 25,
  "tvshow": "",
  "address": "서울 강서구 강서로 303",
  "lat": "37.5529830096435",
  "lng": "126.83611685001",
  "url": "https://place.map.kakao.com/m/23151312",
  "category": [
   "음식점 ",
   " 한식 ",
   " 감자탕"
  ]
 },
 {
  "name": "양평해장국 마곡점",
  "type": "해장국",
  "star": 4.3,
  "reply": 13,
  "review": 31,
  "tvshow": "",
  "address": "서울 강서구 공항대로 242 열린M타워2 2층 212호",
  "lat": "37.5584801933462",
  "lng": "126.834325655667",
  "url": "https://place.map.kakao.com/m/1150118653",
  "category": [
   "음식점 ",
   " 한식 ",
   " 해장국 ",
   " 양평해장국"
  ]
 },
 {
  "name": "금고깃집 마곡본점",
  "type": "육류,고기",
  "star": 3.6,
  "reply": 87,
  "review": 173,
  "tvshow": "",
  "address": "서울 강서구 마곡동로 61 에이스프라자 109호, 203~205호",
  "lat": "37.56061750007293",
  "lng": "126.83314836748356",
  "url": "https://place.map.kakao.com/m/294491415",
  "category": [
   "음식점 ",
   " 한식 ",
   " 육류,고기"
  ]
 },
 {
  "name": "무한야끼",
  "type": "육류,고기",
  "star": 4.0,
  "reply": 58,
  "review": 688,
  "tvshow": "",
  "address": "서울 강서구 마곡중앙6로 42 사이언스타 212호",
  "lat": "37.560075379872195",
  "lng": "126.83207436417936",
  "url": "https://place.map.kakao.com/m/1091054319",
  "category": [
   "음식점 ",
   " 한식 ",
   " 육류,고기"
  ]
 },
 {
  "name": "옥소반 마곡본점",
  "type": "일식집",
  "star": 3.7,
  "reply": 46,
  "review": 316,
  "tvshow": "",
  "address": "서울 강서구 마곡중앙6로 45 리더스퀘어 1층 119호",
  "lat": "37.56054841121195",
  "lng": "126.83271503851539",
  "url": "https://place.map.kakao.com/m/111495501",
  "category": [
   "음식점 ",
   " 일식 ",
   " 일식집"
  ]
 },
 {
  "name": "백소정 발산역점",
  "type": "돈까스,우동",
  "star": 4.3,
  "reply": 31,
  "review": 175,
  "tvshow": "",
  "address": "서울 강서구 마곡중앙6로 66 퀸즈파크텐 A동 2층 203호",
  "lat": "37.56005134133039",
  "lng": "126.8341908878281",
  "url": "https://place.map.kakao.com/m/1287754880",
  "category": [
   "음식점 ",
   " 일식 ",
   " 돈까스,우동"
  ]
 },
 {
  "name": "대가원 본점",
  "type": "육류,고기",
  "star": 4.2,
  "reply": 102,
  "review": 39,
  "tvshow": "",
  "address": "서울 강서구 공항대로 209 4층 401~405호",
  "lat": "37.559731293339404",
  "lng": "126.83087769506601",
  "url": "https://place.map.kakao.com/m/24432922",
  "category": [
   "음식점 ",
   " 한식 ",
   " 육류,고기"
  ]
 },
 {
  "name": "아웃백스테이크하우스 공항점",
  "type": "패밀리레스토랑",
  "star": 3.6,
  "reply": 35,
  "review": 149,
  "tvshow": "",
  "address": "서울 강서구 마곡중앙6로 16 3층",
  "lat": "37.56039894395399",
  "lng": "126.8290098359123",
  "url": "https://place.map.kakao.com/m/10603892",
  "category": [
   "음식점 ",
   " 패밀리레스토랑 ",
   " 아웃백스테이크하우스"
  ]
 },
 {
  "name": "홍춘천치즈닭갈비 마곡지구점",
  "type": "닭요리",
  "star": 4.6,
  "reply": 16,
  "review": 67,
  "tvshow": "tv소개",
  "address": "서울 강서구 마곡중앙6로 42 사이언스타 2층 203호",
  "lat": "37.5601060232943",
  "lng": "126.832081086223",
  "url": "https://place.map.kakao.com/m/830726862",
  "category": [
   "음식점 ",
   " 한식 ",
   " 육류,고기 ",
   " 닭요리"
  ]
 },
 {
  "name": "익스큐즈미",
  "type": "카페",
  "star": 3.6,
  "reply": 12,
  "review": 78,
  "tvshow": "",
  "address": "서울 강서구 마곡동로 56 건와빌딩 1층",
  "lat": "37.5599607392061",
  "lng": "126.833833439608",
  "url": "https://place.map.kakao.com/m/1170011529",
  "category": [
   "음식점 ",
   " 카페"
  ]
 },
 {
  "name": "헤리스헤이스",
  "type": "카페",
  "star": 4.9,
  "reply": 28,
  "review": 70,
  "tvshow": "",
  "address": "서울 강서구 마곡동로3길 26 103호",
  "lat": "37.560190277180666",
  "lng": "126.83051221672146",
  "url": "https://place.map.kakao.com/m/2117253986",
  "category": [
   "음식점 ",
   " 카페"
  ]
 },
 {
  "name": "바스버거 마곡점",
  "type": "햄버거",
  "star": 4.2,
  "reply": 15,
  "review": 87,
  "tvshow": "",
  "address": "서울 강서구 마곡동로 62 마곡 사이언스타워 1층",
  "lat": "37.560532065986465",
  "lng": "126.83390121115632",
  "url": "https://place.map.kakao.com/m/1726918927",
  "category": [
   "음식점 ",
   " 양식 ",
   " 햄버거"
  ]
 },
 {
  "name": "더메이드뷔페",
  "type": "뷔페",
  "star": 4.0,
  "reply": 30,
  "review": 38,
  "tvshow": "",
  "address": "서울 강서구 마곡중앙6로 21 4층",
  "lat": "37.56077463563587",
  "lng": "126.829616760844",
  "url": "https://place.map.kakao.com/m/1856805038",
  "category": [
   "음식점 ",
   " 뷔페"
  ]
 },
 {
  "name": "타이투고 마곡점",
  "type": "태국음식",
  "star": 4.4,
  "reply": 24,
  "review": 48,
  "tvshow": "",
  "address": "서울 강서구 마곡중앙6로 45 리더스퀘어마곡 1층 115호",
  "lat": "37.5605790626135",
  "lng": "126.832727419895",
  "url": "https://place.map.kakao.com/m/214853519",
  "category": [
   "음식점 ",
   " 아시아음식 ",
   " 동남아음식 ",
   " 태국음식"
  ]
 },
 {
  "name": "전설의 스테이크갈비",
  "type": "갈비",
  "star": 4.6,
  "reply": 17,
  "review": 120,
  "tvshow": "",
  "address": "서울 강서구 마곡중앙6로 45 리더스퀘어마곡 1층 130~132호",
  "lat": "37.560589861701274",
  "lng": "126.83271834127113",
  "url": "https://place.map.kakao.com/m/331310393",
  "category": [
   "음식점 ",
   " 한식 ",
   " 육류,고기 ",
   " 갈비"
  ]
 },
 {
  "name": "동천",
  "type": "중화요리",
  "star": 3.5,
  "reply": 13,
  "review": 67,
  "tvshow": "",
  "address": "서울 강서구 마곡중앙6로 42 사이언스타 4층 401호",
  "lat": "37.560044697811",
  "lng": "126.832040478984",
  "url": "https://place.map.kakao.com/m/1916757369",
  "category": [
   "음식점 ",
   " 중식 ",
   " 중화요리"
  ]
 },
 {
  "name": "가네샤 (2021년7월11일까지 휴업)",
  "type": "",
  "star": 4.1,
  "reply": 37,
  "review": 71,
  "tvshow": "",
  "address": "서울 강서구 마곡동로3길 26 305호",
  "lat": "37.5601974948725",
  "lng": "126.830518991197",
  "url": "https://place.map.kakao.com/m/27542247",
  "category": [
   "음식점 ",
   " 아시아음식 ",
   " 인도음식"
  ]
 },
 {
  "name": "쉐드커피",
  "type": "디저트카페",
  "star": 4.9,
  "reply": 10,
  "review": 101,
  "tvshow": "",
  "address": "서울 강서구 마곡중앙6로 16 마곡지엠지타워 1층 114호",
  "lat": "37.56040480353494",
  "lng": "126.82932333313379",
  "url": "https://place.map.kakao.com/m/1660750406",
  "category": [
   "음식점 ",
   " 카페 ",
   " 테마카페 ",
   " 디저트카페"
  ]
 },
 {
  "name": "구락",
  "type": "일본식주점",
  "star": 3.8,
  "reply": 13,
  "review": 77,
  "tvshow": "",
  "address": "서울 강서구 마곡중앙6로 45 리더스퀘어마곡 2층 213호",
  "lat": "37.5606078815614",
  "lng": "126.832718300983",
  "url": "https://place.map.kakao.com/m/1837818894",
  "category": [
   "음식점 ",
   " 술집 ",
   " 일본식주점"
  ]
 },
 {
  "name": "가랑삼계탕 마곡점",
  "type": "삼계탕",
  "star": 4.1,
  "reply": 11,
  "review": 32,
  "tvshow": "",
  "address": "서울 강서구 마곡동로 62 마곡사이언스타워 3층",
  "lat": "37.56053748309037",
  "lng": "126.83390912179611",
  "url": "https://place.map.kakao.com/m/1074958220",
  "category": [
   "음식점 ",
   " 한식 ",
   " 육류,고기 ",
   " 닭요리 ",
   " 삼계탕"
  ]
 },
 {
  "name": "도야지",
  "type": "육류,고기",
  "star": 4.9,
  "reply": 10,
  "review": 40,
  "tvshow": "",
  "address": "서울 강서구 마곡중앙6로 45 리더스퀘어마곡 120호",
  "lat": "37.5606295118078",
  "lng": "126.832722779866",
  "url": "https://place.map.kakao.com/m/391200216",
  "category": [
   "음식점 ",
   " 한식 ",
   " 육류,고기"
  ]
 },
 {
  "name": "신선",
  "type": "중화요리",
  "star": 3.9,
  "reply": 20,
  "review": 42,
  "tvshow": "",
  "address": "서울 강서구 마곡동로 62 마곡사이언스타워 208호",
  "lat": "37.560468880208326",
  "lng": "126.83381872941806",
  "url": "https://place.map.kakao.com/m/1846853976",
  "category": [
   "음식점 ",
   " 중식 ",
   " 중화요리"
  ]
 },
 {
  "name": "저스트텐동 마곡점",
  "type": "일식",
  "star": 3.6,
  "reply": 24,
  "review": 66,
  "tvshow": "",
  "address": "서울 강서구 마곡중앙6로 42",
  "lat": "37.560145111826714",
  "lng": "126.83232433622634",
  "url": "https://place.map.kakao.com/m/1847656678",
  "category": [
   "음식점 ",
   " 일식"
  ]
 },
 {
  "name": "맛있게고이다",
  "type": "퓨전한식",
  "star": 4.7,
  "reply": 15,
  "review": 31,
  "tvshow": "",
  "address": "서울 강서구 마곡중앙6로 42 사이언스타 211호",
  "lat": "37.56010240966385",
  "lng": "126.83207430351604",
  "url": "https://place.map.kakao.com/m/124899189",
  "category": [
   "음식점 ",
   " 퓨전요리 ",
   " 퓨전한식"
  ]
 },
 {
  "name": "미분당 마곡점",
  "type": "베트남음식",
  "star": 4.0,
  "reply": 13,
  "review": 35,
  "tvshow": "",
  "address": "서울 강서구 마곡중앙6로 21 이너매스마곡1차 1층 119호",
  "lat": "37.5608341011627",
  "lng": "126.829616625428",
  "url": "https://place.map.kakao.com/m/458485226",
  "category": [
   "음식점 ",
   " 아시아음식 ",
   " 동남아음식 ",
   " 베트남음식"
  ]
 },
 {
  "name": "써스티몽크 마곡점",
  "type": "호프,요리주점",
  "star": 3.7,
  "reply": 11,
  "review": 34,
  "tvshow": "",
  "address": "서울 강서구 마곡중앙6로 45 A동 3층 301호",
  "lat": "37.5606295118078",
  "lng": "126.8327227798663",
  "url": "https://place.map.kakao.com/m/2118174844",
  "category": [
   "음식점 ",
   " 술집 ",
   " 호프,요리주점"
  ]
 },
 {
  "name": "코끼리탭룸",
  "type": "호프,요리주점",
  "star": 4.6,
  "reply": 22,
  "review": 45,
  "tvshow": "",
  "address": "서울 강서구 공항대로 195 힐스테이트에코동익 101동 1층 130호",
  "lat": "37.5599367285711",
  "lng": "126.82962998690157",
  "url": "https://place.map.kakao.com/m/1226450303",
  "category": [
   "음식점 ",
   " 술집 ",
   " 호프,요리주점"
  ]
 },
 {
  "name": "마초갈비 마곡점",
  "type": "갈비",
  "star": 4.1,
  "reply": 12,
  "review": 122,
  "tvshow": "",
  "address": "서울 강서구 마곡동 796-3",
  "lat": "37.56044754135405",
  "lng": "126.83402137044123",
  "url": "https://place.map.kakao.com/m/437731331",
  "category": [
   "음식점 ",
   " 한식 ",
   " 육류,고기 ",
   " 갈비"
  ]
 },
 {
  "name": "바삭하게",
  "type": "돈까스,우동",
  "star": 3.6,
  "reply": 10,
  "review": 22,
  "tvshow": "",
  "address": "서울 강서구 공항대로 237",
  "lat": "37.55941128621879",
  "lng": "126.83394331187426",
  "url": "https://place.map.kakao.com/m/1810605778",
  "category": [
   "음식점 ",
   " 일식 ",
   " 돈까스,우동"
  ]
 },
 {
  "name": "장위동유성집 강서점",
  "type": "갈비",
  "star": 4.1,
  "reply": 10,
  "review": 21,
  "tvshow": "",
  "address": "서울 강서구 마곡중앙6로 16 마곡지엠지타워 201호",
  "lat": "37.560397137050806",
  "lng": "126.82900644462018",
  "url": "https://place.map.kakao.com/m/9417997",
  "category": [
   "음식점 ",
   " 한식 ",
   " 육류,고기 ",
   " 갈비"
  ]
 },
 {
  "name": "손여사돈여사",
  "type": "한식",
  "star": 4.7,
  "reply": 19,
  "review": 39,
  "tvshow": "",
  "address": "서울 강서구 마곡중앙6로 42 사이언스타 2층",
  "lat": "37.56010240966385",
  "lng": "126.83207430351604",
  "url": "https://place.map.kakao.com/m/182780378",
  "category": [
   "음식점 ",
   " 한식"
  ]
 },
 {
  "name": "긴꼬리초밥",
  "type": "초밥,롤",
  "star": 4.2,
  "reply": 78,
  "review": 194,
  "tvshow": "tv소개",
  "address": "서울 강서구 공항대로 269-15 2층 201호",
  "lat": "37.5594744619683",
  "lng": "126.837254798831",
  "url": "https://place.map.kakao.com/m/1878359735",
  "category": [
   "음식점 ",
   " 일식 ",
   " 초밥,롤"
  ]
 },
 {
  "name": "샤브20 발산역점",
  "type": "샤브샤브",
  "star": 3.7,
  "reply": 14,
  "review": 302,
  "tvshow": "",
  "address": "서울 강서구 공항대로 261 2층",
  "lat": "37.55911304201471",
  "lng": "126.8365153956752",
  "url": "https://place.map.kakao.com/m/1768952564",
  "category": [
   "음식점 ",
   " 샤브샤브"
  ]
 },
 {
  "name": "도화림",
  "type": "중화요리",
  "star": 4.0,
  "reply": 34,
  "review": 83,
  "tvshow": "",
  "address": "서울 강서구 강서로 391 문영비지웍스 2층 206호",
  "lat": "37.5604680443773",
  "lng": "126.838409345842",
  "url": "https://place.map.kakao.com/m/446031421",
  "category": [
   "음식점 ",
   " 중식 ",
   " 중화요리"
  ]
 },
 {
  "name": "화덕고깃간 마곡발산점",
  "type": "육류,고기",
  "star": 3.8,
  "reply": 11,
  "review": 154,
  "tvshow": "",
  "address": "서울 강서구 마곡중앙6로 63 마곡테크노타워 1층 105호",
  "lat": "37.5603616768241",
  "lng": "126.834470888171",
  "url": "https://place.map.kakao.com/m/466488209",
  "category": [
   "음식점 ",
   " 한식 ",
   " 육류,고기"
  ]
 },
 {
  "name": "숙달돼지 마곡발산점",
  "type": "육류,고기",
  "star": 4.3,
  "reply": 21,
  "review": 127,
  "tvshow": "",
  "address": "서울 강서구 강서로 415 갤럭시인텔리젼스 1층 101호",
  "lat": "37.5625990553631",
  "lng": "126.839183449639",
  "url": "https://place.map.kakao.com/m/1235572486",
  "category": [
   "음식점 ",
   " 한식 ",
   " 육류,고기"
  ]
 },
 {
  "name": "우학면옥 마곡점",
  "type": "냉면",
  "star": 3.7,
  "reply": 34,
  "review": 104,
  "tvshow": "",
  "address": "서울 강서구 공항대로 261 발산파크프라자 2층",
  "lat": "37.559229063205365",
  "lng": "126.83636574595614",
  "url": "https://place.map.kakao.com/m/2102651886",
  "category": [
   "음식점 ",
   " 한식 ",
   " 냉면"
  ]
 },
 {
  "name": "참치왕양승호",
  "type": "참치회",
  "star": 3.9,
  "reply": 24,
  "review": 62,
  "tvshow": "tv소개",
  "address": "서울 강서구 마곡동로4길 15 엠팰리체 1동 2층 202,203호",
  "lat": "37.5596960688866",
  "lng": "126.835278199876",
  "url": "https://place.map.kakao.com/m/154970169",
  "category": [
   "음식점 ",
   " 일식 ",
   " 참치회"
  ]
 },
 {
  "name": "신경섭의인생참치",
  "type": "참치회",
  "star": 4.9,
  "reply": 12,
  "review": 50,
  "tvshow": "",
  "address": "서울 강서구 마곡동로4길 23 2층",
  "lat": "37.559643287875",
  "lng": "126.836197334297",
  "url": "https://place.map.kakao.com/m/1830563434",
  "category": [
   "음식점 ",
   " 일식 ",
   " 참치회"
  ]
 },
 {
  "name": "발산회관",
  "type": "곱창,막창",
  "star": 3.9,
  "reply": 17,
  "review": 212,
  "tvshow": "",
  "address": "서울 강서구 강서로 402 재영빌딩 1층",
  "lat": "37.5613902430644",
  "lng": "126.839421466941",
  "url": "https://place.map.kakao.com/m/1461335471",
  "category": [
   "음식점 ",
   " 한식 ",
   " 육류,고기 ",
   " 곱창,막창"
  ]
 },
 {
  "name": "호우양꼬치 마곡점",
  "type": "양꼬치",
  "star": 4.5,
  "reply": 12,
  "review": 71,
  "tvshow": "",
  "address": "서울 강서구 마곡중앙6로 93 열린프라자 2층",
  "lat": "37.5600453796944",
  "lng": "126.837681378189",
  "url": "https://place.map.kakao.com/m/269238772",
  "category": [
   "음식점 ",
   " 중식 ",
   " 양꼬치"
  ]
 },
 {
  "name": "그랑한우 마곡",
  "type": "육류,고기",
  "star": 4.9,
  "reply": 18,
  "review": 177,
  "tvshow": "",
  "address": "서울 강서구 마곡중앙6로 66 퀸즈파크텐 2층 220호",
  "lat": "37.5599146254881",
  "lng": "126.834358697182",
  "url": "https://place.map.kakao.com/m/822430845",
  "category": [
   "음식점 ",
   " 한식 ",
   " 육류,고기"
  ]
 },
 {
  "name": "설화랑 발산역점",
  "type": "육류,고기",
  "star": 3.6,
  "reply": 30,
  "review": 298,
  "tvshow": "",
  "address": "서울 강서구 강서로 381-7 예원빌딩 2층",
  "lat": "37.5595592039758",
  "lng": "126.83794500922",
  "url": "https://place.map.kakao.com/m/2141832291",
  "category": [
   "음식점 ",
   " 한식 ",
   " 육류,고기"
  ]
 },
 {
  "name": "교대이층집 발산점",
  "type": "육류,고기",
  "star": 3.6,
  "reply": 23,
  "review": 93,
  "tvshow": "",
  "address": "서울 강서구 강서로 381 수창빌딩 2층",
  "lat": "37.5595559477028",
  "lng": "126.838198538253",
  "url": "https://place.map.kakao.com/m/2014538461",
  "category": [
   "음식점 ",
   " 한식 ",
   " 육류,고기"
  ]
 },
 {
  "name": "맛찬들왕소금구이 발산역점",
  "type": "육류,고기",
  "star": 3.6,
  "reply": 99,
  "review": 72,
  "tvshow": "",
  "address": "서울 강서구 강서로 375-7",
  "lat": "37.559112180705",
  "lng": "126.837850907199",
  "url": "https://place.map.kakao.com/m/21360116",
  "category": [
   "음식점 ",
   " 한식 ",
   " 육류,고기 ",
   " 맛찬들왕소금구이"
  ]
 },
 {
  "name": "마곡삼계탕",
  "type": "삼계탕",
  "star": 4.6,
  "reply": 20,
  "review": 62,
  "tvshow": "",
  "address": "서울 강서구 공항대로 247 퀸즈파크나인 B동 2층",
  "lat": "37.55931758221805",
  "lng": "126.83522923429224",
  "url": "https://place.map.kakao.com/m/1224367730",
  "category": [
   "음식점 ",
   " 한식 ",
   " 육류,고기 ",
   " 닭요리 ",
   " 삼계탕"
  ]
 },
 {
  "name": "마므레크로와상",
  "type": "제과,베이커리",
  "star": 4.7,
  "reply": 30,
  "review": 50,
  "tvshow": "",
  "address": "서울 강서구 공항대로 269-15",
  "lat": "37.559612208098",
  "lng": "126.837243068095",
  "url": "https://place.map.kakao.com/m/1911333056",
  "category": [
   "음식점 ",
   " 간식 ",
   " 제과,베이커리"
  ]
 },
 {
  "name": "이태리부대찌개 발산점",
  "type": "찌개,전골",
  "star": 3.9,
  "reply": 18,
  "review": 66,
  "tvshow": "",
  "address": "서울 강서구 마곡중앙6로 66 퀸즈파크텐 B동 B103호",
  "lat": "37.5599146254881",
  "lng": "126.834358697182",
  "url": "https://place.map.kakao.com/m/419583710",
  "category": [
   "음식점 ",
   " 한식 ",
   " 찌개,전골"
  ]
 },
 {
  "name": "런던스테이크",
  "type": "스테이크,립",
  "star": 4.8,
  "reply": 11,
  "review": 47,
  "tvshow": "",
  "address": "서울 강서구 공항대로 269-15 힐스테이트에코마곡 202호",
  "lat": "37.5594788327296",
  "lng": "126.837157455094",
  "url": "https://place.map.kakao.com/m/1246566580",
  "category": [
   "음식점 ",
   " 양식 ",
   " 스테이크,립"
  ]
 },
 {
  "name": "진화쿵푸마라탕 발산역점",
  "type": "중화요리",
  "star": 4.1,
  "reply": 15,
  "review": 56,
  "tvshow": "",
  "address": "서울 강서구 강서로 385 105호",
  "lat": "37.55995808525424",
  "lng": "126.83841271077591",
  "url": "https://place.map.kakao.com/m/1870477094",
  "category": [
   "음식점 ",
   " 중식 ",
   " 중화요리"
  ]
 },
 {
  "name": "랑월",
  "type": "중화요리",
  "star": 3.9,
  "reply": 17,
  "review": 44,
  "tvshow": "",
  "address": "서울 강서구 마곡중앙6로 66 퀸즈파크텐 2층 206호",
  "lat": "37.5599145683188",
  "lng": "126.834317952511",
  "url": "https://place.map.kakao.com/m/708280720",
  "category": [
   "음식점 ",
   " 중식 ",
   " 중화요리"
  ]
 },
 {
  "name": "더블랙",
  "type": "육류,고기",
  "star": 4.4,
  "reply": 13,
  "review": 55,
  "tvshow": "",
  "address": "서울 강서구 공항대로 269-15 2층 214호",
  "lat": "37.5596122983534",
  "lng": "126.837243181078",
  "url": "https://place.map.kakao.com/m/545692118",
  "category": [
   "음식점 ",
   " 한식 ",
   " 육류,고기"
  ]
 },
 {
  "name": "라까사",
  "type": "이탈리안",
  "star": 4.1,
  "reply": 16,
  "review": 51,
  "tvshow": "",
  "address": "서울 강서구 마곡중앙8로 90 마곡아이파크 201호",
  "lat": "37.5606361946389",
  "lng": "126.837508061217",
  "url": "https://place.map.kakao.com/m/463455868",
  "category": [
   "음식점 ",
   " 양식 ",
   " 이탈리안"
  ]
 },
 {
  "name": "원당곱창",
  "type": "곱창,막창",
  "star": 3.9,
  "reply": 11,
  "review": 37,
  "tvshow": "",
  "address": "서울 강서구 강서로 379 1층",
  "lat": "37.5594984391714",
  "lng": "126.83831184198",
  "url": "https://place.map.kakao.com/m/8526884",
  "category": [
   "음식점 ",
   " 한식 ",
   " 육류,고기 ",
   " 곱창,막창"
  ]
 },
 {
  "name": "경성목간",
  "type": "육류,고기",
  "star": 3.6,
  "reply": 17,
  "review": 69,
  "tvshow": "",
  "address": "서울 강서구 마곡중앙6로 63 마곡테크노타워1 2층 201호",
  "lat": "37.5604624801265",
  "lng": "126.834393702204",
  "url": "https://place.map.kakao.com/m/841322729",
  "category": [
   "음식점 ",
   " 한식 ",
   " 육류,고기"
  ]
 },
 {
  "name": "마곡닭한마리",
  "type": "닭요리",
  "star": 4.4,
  "reply": 14,
  "review": 45,
  "tvshow": "",
  "address": "서울 강서구 강서로 391",
  "lat": "37.560502280573004",
  "lng": "126.83840814009397",
  "url": "https://place.map.kakao.com/m/948904529",
  "category": [
   "음식점 ",
   " 한식 ",
   " 육류,고기 ",
   " 닭요리"
  ]
 },
 {
  "name": "청년다방 발산역점",
  "type": "떡볶이",
  "star": 3.5,
  "reply": 20,
  "review": 55,
  "tvshow": "",
  "address": "서울 강서구 공항대로 269-15 힐스테이트에코마곡 1층 122호",
  "lat": "37.55970256924371",
  "lng": "126.83736748236495",
  "url": "https://place.map.kakao.com/m/1435234751",
  "category": [
   "음식점 ",
   " 분식 ",
   " 떡볶이 ",
   " 청년다방"
  ]
 },
 {
  "name": "탄탄면공방 마곡점",
  "type": "아시아음식",
  "star": 3.9,
  "reply": 14,
  "review": 60,
  "tvshow": "",
  "address": "서울 강서구 공항대로 269-15 힐스테이트에코마곡 1층 123호",
  "lat": "37.559738440543214",
  "lng": "126.83724517028806",
  "url": "https://place.map.kakao.com/m/45430524",
  "category": [
   "음식점 ",
   " 아시아음식"
  ]
 },
 {
  "name": "마곡테이블",
  "type": "양식",
  "star": 4.2,
  "reply": 15,
  "review": 52,
  "tvshow": "",
  "address": "서울 강서구 마곡중앙6로 63",
  "lat": "37.5604210661918",
  "lng": "126.834416430019",
  "url": "https://place.map.kakao.com/m/1794056893",
  "category": [
   "음식점 ",
   " 양식"
  ]
 },
 {
  "name": "화양연화",
  "type": "중식",
  "star": 4.3,
  "reply": 12,
  "review": 29,
  "tvshow": "",
  "address": "서울 강서구 마곡중앙6로 70 매그넘797 2층 212호",
  "lat": "37.55985765319",
  "lng": "126.8348522877",
  "url": "https://place.map.kakao.com/m/346487822",
  "category": [
   "음식점 ",
   " 중식"
  ]
 },
 {
  "name": "나인바이츠",
  "type": "햄버거",
  "star": 3.7,
  "reply": 14,
  "review": 27,
  "tvshow": "",
  "address": "서울 강서구 공항대로 269-15 마곡힐스테이트에코 2층 217호",
  "lat": "37.5595399816118",
  "lng": "126.837071305647",
  "url": "https://place.map.kakao.com/m/1949946539",
  "category": [
   "음식점 ",
   " 양식 ",
   " 햄버거"
  ]
 },
 {
  "name": "황소랑 발산직영점",
  "type": "육류,고기",
  "star": 3.5,
  "reply": 13,
  "review": 193,
  "tvshow": "",
  "address": "서울 강서구 마곡중앙8로 90 마곡아이파크 2층 202~204호",
  "lat": "37.5606000364955",
  "lng": "126.837422122157",
  "url": "https://place.map.kakao.com/m/1861144672",
  "category": [
   "음식점 ",
   " 한식 ",
   " 육류,고기"
  ]
 },
 {
  "name": "설빙 발산점",
  "type": "디저트카페",
  "star": 3.9,
  "reply": 11,
  "review": 21,
  "tvshow": "",
  "address": "서울 강서구 강서로 380 세민홈프라자 2층",
  "lat": "37.5594632224616",
  "lng": "126.838914032042",
  "url": "https://place.map.kakao.com/m/26644158",
  "category": [
   "음식점 ",
   " 카페 ",
   " 테마카페 ",
   " 디저트카페 ",
   " 설빙"
  ]
 },
 {
  "name": "델리팰리스",
  "type": "인도음식",
  "star": 4.8,
  "reply": 15,
  "review": 63,
  "tvshow": "",
  "address": "서울 강서구 공항대로 269-15 힐스테이트에코마곡 2층 205호",
  "lat": "37.5594744307649",
  "lng": "126.837232163033",
  "url": "https://place.map.kakao.com/m/828943044",
  "category": [
   "음식점 ",
   " 아시아음식 ",
   " 인도음식"
  ]
 },
 {
  "name": "레피큐르",
  "type": "양식",
  "star": 3.9,
  "reply": 17,
  "review": 41,
  "tvshow": "",
  "address": "서울 강서구 공항대로 247 마곡퀸즈파크나인 A동 205호",
  "lat": "37.55940478966353",
  "lng": "126.83496476876839",
  "url": "https://place.map.kakao.com/m/27057082",
  "category": [
   "음식점 ",
   " 양식"
  ]
 },
 {
  "name": "란콰이펑누들",
  "type": "중식",
  "star": 3.9,
  "reply": 15,
  "review": 38,
  "tvshow": "",
  "address": "서울 강서구 마곡중앙6로 63 마곡테크노타워 1층 101,102호",
  "lat": "37.5604300951698",
  "lng": "126.834429991731",
  "url": "https://place.map.kakao.com/m/1968528237",
  "category": [
   "음식점 ",
   " 중식"
  ]
 },
 {
  "name": "홍콩다방 마곡점",
  "type": "카페",
  "star": 3.5,
  "reply": 11,
  "review": 45,
  "tvshow": "",
  "address": "서울 강서구 마곡중앙6로 63 마곡테크노타워 110호",
  "lat": "37.5604624801265",
  "lng": "126.834393702204",
  "url": "https://place.map.kakao.com/m/1027941578",
  "category": [
   "음식점 ",
   " 카페"
  ]
 },
 {
  "name": "식껍 발산점",
  "type": "육류,고기",
  "star": 4.1,
  "reply": 11,
  "review": 51,
  "tvshow": "",
  "address": "서울 강서구 강서로 385 1층 125, 126호",
  "lat": "37.560093079304",
  "lng": "126.838299238974",
  "url": "https://place.map.kakao.com/m/1236195367",
  "category": [
   "음식점 ",
   " 한식 ",
   " 육류,고기"
  ]
 },
 {
  "name": "두꺼비숙성횟집",
  "type": "회",
  "star": 4.1,
  "reply": 13,
  "review": 58,
  "tvshow": "",
  "address": "서울 강서구 마곡중앙6로 93 열린프라자 1층 112호",
  "lat": "37.56013550392",
  "lng": "126.837699291529",
  "url": "https://place.map.kakao.com/m/340489631",
  "category": [
   "음식점 ",
   " 한식 ",
   " 해물,생선 ",
   " 회"
  ]
 },
 {
  "name": "스즈란테이",
  "type": "일식집",
  "star": 3.9,
  "reply": 29,
  "review": 56,
  "tvshow": "",
  "address": "서울 강서구 공항대로 269-15",
  "lat": "37.5595369142641",
  "lng": "126.837460649551",
  "url": "https://place.map.kakao.com/m/448085533",
  "category": [
   "음식점 ",
   " 일식 ",
   " 일식집"
  ]
 },
 {
  "name": "빠레뜨한남 마곡점",
  "type": "양식",
  "star": 4.1,
  "reply": 13,
  "review": 84,
  "tvshow": "",
  "address": "서울 강서구 마곡중앙8로 90 마곡아이파크 1층 115,116호",
  "lat": "37.5605831792988",
  "lng": "126.837612302881",
  "url": "https://place.map.kakao.com/m/720690490",
  "category": [
   "음식점 ",
   " 양식"
  ]
 },
 {
  "name": "이타제면소",
  "type": "국수",
  "star": 4.1,
  "reply": 10,
  "review": 93,
  "tvshow": "",
  "address": "서울 강서구 마곡동로10길 46 115~117호",
  "lat": "37.5670110727176",
  "lng": "126.839730863411",
  "url": "https://place.map.kakao.com/m/1935013065",
  "category": [
   "음식점 ",
   " 한식 ",
   " 국수"
  ]
 },
 {
  "name": "가마메시야 울림",
  "type": "일식집",
  "star": 3.6,
  "reply": 29,
  "review": 95,
  "tvshow": "",
  "address": "서울 강서구 마곡중앙로 76 힐스테이트에코마곡역 1층 126호",
  "lat": "37.5603949572859",
  "lng": "126.827507936999",
  "url": "https://place.map.kakao.com/m/145643675",
  "category": [
   "음식점 ",
   " 일식 ",
   " 일식집"
  ]
 },
 {
  "name": "연화산",
  "type": "중화요리",
  "star": 3.6,
  "reply": 13,
  "review": 77,
  "tvshow": "",
  "address": "서울 강서구 마곡중앙5로 87 2층 205호",
  "lat": "37.56717203637103",
  "lng": "126.817773735335",
  "url": "https://place.map.kakao.com/m/3076982",
  "category": [
   "음식점 ",
   " 중식 ",
   " 중화요리"
  ]
 },
 {
  "name": "수초밥",
  "type": "초밥,롤",
  "star": 3.6,
  "reply": 39,
  "review": 60,
  "tvshow": "",
  "address": "서울 강서구 마곡중앙5로 87",
  "lat": "37.5672456064974",
  "lng": "126.81757207603",
  "url": "https://place.map.kakao.com/m/27262062",
  "category": [
   "음식점 ",
   " 일식 ",
   " 초밥,롤"
  ]
 },
 {
  "name": "오즈테이블 마곡점",
  "type": "이탈리안",
  "star": 4.3,
  "reply": 16,
  "review": 66,
  "tvshow": "",
  "address": "서울 강서구 마곡중앙로 56 사이언스타워2 지하1층 104호",
  "lat": "37.5585528047031",
  "lng": "126.827154541412",
  "url": "https://place.map.kakao.com/m/1605249111",
  "category": [
   "음식점 ",
   " 양식 ",
   " 이탈리안"
  ]
 },
 {
  "name": "달인대보손칼국수",
  "type": "국수",
  "star": 3.9,
  "reply": 23,
  "review": 35,
  "tvshow": "",
  "address": "서울 강서구 마곡중앙5로 6 마곡나루역보타닉푸르지오시티 2층 211호",
  "lat": "37.5672943024742",
  "lng": "126.827181884995",
  "url": "https://place.map.kakao.com/m/10806194",
  "category": [
   "음식점 ",
   " 한식 ",
   " 국수"
  ]
 },
 {
  "name": "설빙 서울마곡나루점",
  "type": "디저트카페",
  "star": 3.9,
  "reply": 19,
  "review": 24,
  "tvshow": "",
  "address": "서울 강서구 마곡중앙5로 6 마곡나루역 보타닉푸르지오시티 2층 235호",
  "lat": "37.56705434503034",
  "lng": "126.8275978495443",
  "url": "https://place.map.kakao.com/m/480323354",
  "category": [
   "음식점 ",
   " 카페 ",
   " 테마카페 ",
   " 디저트카페 ",
   " 설빙"
  ]
 },
 {
  "name": "퍼스커피",
  "type": "카페",
  "star": 4.3,
  "reply": 17,
  "review": 40,
  "tvshow": "",
  "address": "서울 강서구 마곡중앙5로 81 에스비타운 1층 103호",
  "lat": "37.5671584735494",
  "lng": "126.818327272007",
  "url": "https://place.map.kakao.com/m/1230524834",
  "category": [
   "음식점 ",
   " 카페"
  ]
 },
 {
  "name": "소앤돼지",
  "type": "육류,고기",
  "star": 4.7,
  "reply": 15,
  "review": 88,
  "tvshow": "",
  "address": "서울 강서구 마곡중앙5로 6 보타닉 프루지오 지하1층 126호",
  "lat": "37.56729955675188",
  "lng": "126.8264642409386",
  "url": "https://place.map.kakao.com/m/475047582",
  "category": [
   "음식점 ",
   " 한식 ",
   " 육류,고기"
  ]
 },
 {
  "name": "이오카츠 마곡점",
  "type": "돈까스,우동",
  "star": 4.6,
  "reply": 27,
  "review": 23,
  "tvshow": "",
  "address": "서울 강서구 공항대로 164 류마타워1차 1층 122,123호",
  "lat": "37.55917409532546",
  "lng": "126.82565914528716",
  "url": "https://place.map.kakao.com/m/99986774",
  "category": [
   "음식점 ",
   " 일식 ",
   " 돈까스,우동"
  ]
 },
 {
  "name": "마곡오리",
  "type": "오리",
  "star": 4.2,
  "reply": 31,
  "review": 61,
  "tvshow": "",
  "address": "서울 강서구 양천로30길 11",
  "lat": "37.5726704521096",
  "lng": "126.822870154152",
  "url": "https://place.map.kakao.com/m/18489130",
  "category": [
   "음식점 ",
   " 한식 ",
   " 육류,고기 ",
   " 오리"
  ]
 },
 {
  "name": "송쭈집 마곡나루점",
  "type": "해물,생선",
  "star": 4.4,
  "reply": 36,
  "review": 221,
  "tvshow": "",
  "address": "서울 강서구 마곡서로 158 마곡센트럴타워2차 2층",
  "lat": "37.568089999761",
  "lng": "126.825425565238",
  "url": "https://place.map.kakao.com/m/1743749269",
  "category": [
   "음식점 ",
   " 한식 ",
   " 해물,생선"
  ]
 },
 {
  "name": "상생삼겹살",
  "type": "삼겹살",
  "star": 4.6,
  "reply": 50,
  "review": 80,
  "tvshow": "",
  "address": "서울 강서구 마곡중앙로 161-8 두산더랜드파크 B동 1층 113, 114호",
  "lat": "37.56910545789559",
  "lng": "126.82728863049688",
  "url": "https://place.map.kakao.com/m/1437005388",
  "category": [
   "음식점 ",
   " 한식 ",
   " 육류,고기 ",
   " 삼겹살"
  ]
 },
 {
  "name": "구구향훠궈 마곡나루역점",
  "type": "샤브샤브",
  "star": 4.7,
  "reply": 18,
  "review": 81,
  "tvshow": "",
  "address": "서울 강서구 마곡중앙로 171 마곡나루역프라이빗타워2 1층",
  "lat": "37.5690341721864",
  "lng": "126.827832125243",
  "url": "https://place.map.kakao.com/m/197403230",
  "category": [
   "음식점 ",
   " 샤브샤브"
  ]
 },
 {
  "name": "예향정 마곡점",
  "type": "찌개,전골",
  "star": 4.3,
  "reply": 23,
  "review": 57,
  "tvshow": "",
  "address": "서울 강서구 마곡중앙로 161-11 힐스테이트에코 2층 A-202, 203호",
  "lat": "37.567970248680346",
  "lng": "126.82670378429482",
  "url": "https://place.map.kakao.com/m/2112037151",
  "category": [
   "음식점 ",
   " 한식 ",
   " 찌개,전골"
  ]
 },
 {
  "name": "인라이크",
  "type": "디저트카페",
  "star": 4.8,
  "reply": 12,
  "review": 47,
  "tvshow": "",
  "address": "서울 강서구 양천로30길 103",
  "lat": "37.5686195150318",
  "lng": "126.822825414747",
  "url": "https://place.map.kakao.com/m/1593193993",
  "category": [
   "음식점 ",
   " 카페 ",
   " 테마카페 ",
   " 디저트카페"
  ]
 },
 {
  "name": "목로주점1987",
  "type": "호프,요리주점",
  "star": 4.4,
  "reply": 24,
  "review": 51,
  "tvshow": "",
  "address": "서울 강서구 마곡중앙로 161-11 힐스테이트에코마곡나루역라마다앙코르서울 A동 1층 106, 107호",
  "lat": "37.567960385952354",
  "lng": "126.826736632869",
  "url": "https://place.map.kakao.com/m/1727580951",
  "category": [
   "음식점 ",
   " 술집 ",
   " 호프,요리주점"
  ]
 },
 {
  "name": "형제돈부리",
  "type": "돈까스,우동",
  "star": 4.3,
  "reply": 36,
  "review": 39,
  "tvshow": "",
  "address": "서울 강서구 마곡중앙로 161-8 A동 221호",
  "lat": "37.5690937501991",
  "lng": "126.826677410635",
  "url": "https://place.map.kakao.com/m/895559937",
  "category": [
   "음식점 ",
   " 일식 ",
   " 돈까스,우동"
  ]
 },
 {
  "name": "진1926 마곡나루점",
  "type": "육류,고기",
  "star": 3.9,
  "reply": 10,
  "review": 35,
  "tvshow": "",
  "address": "서울 강서구 마곡중앙로 161-8 두산 더랜드파크 B동 116호",
  "lat": "37.5691235571981",
  "lng": "126.827342921784",
  "url": "https://place.map.kakao.com/m/2125890831",
  "category": [
   "음식점 ",
   " 한식 ",
   " 육류,고기"
  ]
 },
 {
  "name": "사이공윤다이",
  "type": "베트남음식",
  "star": 4.2,
  "reply": 30,
  "review": 53,
  "tvshow": "",
  "address": "서울 강서구 마곡중앙5로1길 20 마곡나루역보타닉비즈타워 2층 217,218호",
  "lat": "37.5686649247915",
  "lng": "126.8267100984",
  "url": "https://place.map.kakao.com/m/1831702996",
  "category": [
   "음식점 ",
   " 아시아음식 ",
   " 동남아음식 ",
   " 베트남음식"
  ]
 },
 {
  "name": "나우니스",
  "type": "햄버거",
  "star": 3.5,
  "reply": 12,
  "review": 56,
  "tvshow": "",
  "address": "서울 강서구 마곡중앙로 161-11 라마다앙코르 서울마곡호텔 2층 201호",
  "lat": "37.56803023101496",
  "lng": "126.82644217121091",
  "url": "https://place.map.kakao.com/m/256372595",
  "category": [
   "음식점 ",
   " 양식 ",
   " 햄버거"
  ]
 },
 {
  "name": "에그드랍 마곡나루점",
  "type": "샌드위치",
  "star": 3.8,
  "reply": 13,
  "review": 57,
  "tvshow": "",
  "address": "서울 강서구 마곡중앙5로1길 20 마곡나루역보타닉비즈타워 1층 109호",
  "lat": "37.56849268251227",
  "lng": "126.82660635991361",
  "url": "https://place.map.kakao.com/m/93433429",
  "category": [
   "음식점 ",
   " 패스트푸드 ",
   " 샌드위치 ",
   " 에그드랍"
  ]
 },
 {
  "name": "낙원당 마곡나루점",
  "type": "해물,생선",
  "star": 4.5,
  "reply": 11,
  "review": 35,
  "tvshow": "",
  "address": "서울 강서구 마곡중앙로 161-17 보타닉파크타워 1차 102호",
  "lat": "37.5679910703635",
  "lng": "126.826158149652",
  "url": "https://place.map.kakao.com/m/1911912413",
  "category": [
   "음식점 ",
   " 한식 ",
   " 해물,생선"
  ]
 },
 {
  "name": "꼼떼바베큐 마곡점",
  "type": "이탈리안",
  "star": 3.9,
  "reply": 56,
  "review": 65,
  "tvshow": "",
  "address": "서울 강서구 마곡중앙로 161-11 라마다앙코르 서울마곡호텔 지하 1층",
  "lat": "37.56798379512128",
  "lng": "126.82672525942705",
  "url": "https://place.map.kakao.com/m/1074603645",
  "category": [
   "음식점 ",
   " 양식 ",
   " 이탈리안"
  ]
 },
 {
  "name": "루즈페퍼",
  "type": "와인바",
  "star": 4.5,
  "reply": 11,
  "review": 42,
  "tvshow": "",
  "address": "서울 강서구 마곡중앙로 171 프라이빗타워2차 113호",
  "lat": "37.56902689161126",
  "lng": "126.82778233674225",
  "url": "https://place.map.kakao.com/m/253313684",
  "category": [
   "음식점 ",
   " 술집 ",
   " 와인바"
  ]
 },
 {
  "name": "코지로",
  "type": "일본식주점",
  "star": 3.7,
  "reply": 10,
  "review": 110,
  "tvshow": "",
  "address": "서울 강서구 마곡서로 152 두산더랜드타워 B동 2층 208~210호",
  "lat": "37.56777921063746",
  "lng": "126.82607261619373",
  "url": "https://place.map.kakao.com/m/1140170780",
  "category": [
   "음식점 ",
   " 술집 ",
   " 일본식주점"
  ]
 },
 {
  "name": "겸손돈가스 마곡나루점",
  "type": "돈까스,우동",
  "star": 3.8,
  "reply": 11,
  "review": 29,
  "tvshow": "",
  "address": "서울 강서구 마곡중앙로 161-8 두산더랜드파크 B동 1층 105호",
  "lat": "37.569087504296114",
  "lng": "126.82733394949649",
  "url": "https://place.map.kakao.com/m/1901838598",
  "category": [
   "음식점 ",
   " 일식 ",
   " 돈까스,우동"
  ]
 },
 {
  "name": "파파노다이닝",
  "type": "일식",
  "star": 4.4,
  "reply": 12,
  "review": 28,
  "tvshow": "",
  "address": "서울 강서구 마곡서로 170",
  "lat": "37.5693442952903",
  "lng": "126.825500741838",
  "url": "https://place.map.kakao.com/m/46376629",
  "category": [
   "음식점 ",
   " 일식"
  ]
 },
 {
  "name": "담소소사골순대육개장 마곡나루역점",
  "type": "",
  "star": 3.6,
  "reply": 14,
  "review": 23,
  "tvshow": "",
  "address": "서울 강서구 마곡중앙로 161-11",
  "lat": "37.56805915924109",
  "lng": "126.8265077556258",
  "url": "https://place.map.kakao.com/m/754586661",
  "category": [
   "음식점 ",
   " 한식 ",
   " 순대 ",
   " 담소소사골순대육개장"
  ]
 },
 {
  "name": "1983영웅고기",
  "type": "육류,고기",
  "star": 4.7,
  "reply": 15,
  "review": 59,
  "tvshow": "",
  "address": "서울 강서구 마곡중앙5로1길 20",
  "lat": "37.56866852211142",
  "lng": "126.82670556233671",
  "url": "https://place.map.kakao.com/m/2129524801",
  "category": [
   "음식점 ",
   " 한식 ",
   " 육류,고기"
  ]
 },
 {
  "name": "카츠",
  "type": "한식",
  "star": 4.7,
  "reply": 11,
  "review": 28,
  "tvshow": "",
  "address": "서울 강서구 마곡중앙로 161-22 B동 118호",
  "lat": "37.5686383376435",
  "lng": "126.825786503652",
  "url": "https://place.map.kakao.com/m/119165619",
  "category": [
   "음식점 ",
   " 한식"
  ]
 },
 {
  "name": "개화산장",
  "type": "오리",
  "star": 4.5,
  "reply": 12,
  "review": 46,
  "tvshow": "tv소개",
  "address": "서울 강서구 개화동로19길 6-53",
  "lat": "37.5738009737377",
  "lng": "126.803917633822",
  "url": "https://place.map.kakao.com/m/18446644",
  "category": [
   "음식점 ",
   " 한식 ",
   " 육류,고기 ",
   " 오리"
  ]
 },
 {
  "name": "꾸이꾸이돼지촌쭈꾸미",
  "type": "육류,고기",
  "star": 4.0,
  "reply": 41,
  "review": 114,
  "tvshow": "tv소개",
  "address": "서울 강서구 초원로 77",
  "lat": "37.5676682438589",
  "lng": "126.814151524209",
  "url": "https://place.map.kakao.com/m/2088745005",
  "category": [
   "음식점 ",
   " 한식 ",
   " 육류,고기"
  ]
 },
 {
  "name": "원조나주곰탕",
  "type": "곰탕",
  "star": 4.3,
  "reply": 93,
  "review": 52,
  "tvshow": "tv소개",
  "address": "서울 강서구 양천로14길 10 1층",
  "lat": "37.5726829657583",
  "lng": "126.810055965462",
  "url": "https://place.map.kakao.com/m/9934681",
  "category": [
   "음식점 ",
   " 한식 ",
   " 곰탕"
  ]
 },
 {
  "name": "사모님짬뽕",
  "type": "중화요리",
  "star": 3.7,
  "reply": 81,
  "review": 54,
  "tvshow": "",
  "address": "서울 강서구 금낭화로18길 10",
  "lat": "37.5750759617352",
  "lng": "126.812282248651",
  "url": "https://place.map.kakao.com/m/27223284",
  "category": [
   "음식점 ",
   " 중식 ",
   " 중화요리"
  ]
 },
 {
  "name": "방화동쭈꾸미마을 방화본점",
  "type": "해물,생선",
  "star": 3.5,
  "reply": 31,
  "review": 25,
  "tvshow": "tv소개",
  "address": "서울 강서구 금낭화로15길 12",
  "lat": "37.5741226602812",
  "lng": "126.811120930599",
  "url": "https://place.map.kakao.com/m/8085593",
  "category": [
   "음식점 ",
   " 한식 ",
   " 해물,생선"
  ]
 },
 {
  "name": "왕장군주먹고기 방화점",
  "type": "육류,고기",
  "star": 4.0,
  "reply": 25,
  "review": 24,
  "tvshow": "",
  "address": "서울 강서구 방화대로 337",
  "lat": "37.5709991258366",
  "lng": "126.816394730882",
  "url": "https://place.map.kakao.com/m/23003489",
  "category": [
   "음식점 ",
   " 한식 ",
   " 육류,고기"
  ]
 },
 {
  "name": "하우돈곱창 방화점",
  "type": "곱창,막창",
  "star": 4.1,
  "reply": 18,
  "review": 31,
  "tvshow": "",
  "address": "서울 강서구 초원로 61",
  "lat": "37.5678931587195",
  "lng": "126.81223236048",
  "url": "https://place.map.kakao.com/m/17511761",
  "category": [
   "음식점 ",
   " 한식 ",
   " 육류,고기 ",
   " 곱창,막창 ",
   " 하우돈곱창"
  ]
 },
 {
  "name": "하우돈곱창 신방화점",
  "type": "곱창,막창",
  "star": 4.5,
  "reply": 10,
  "review": 26,
  "tvshow": "",
  "address": "서울 강서구 방화대로 337",
  "lat": "37.5709919249534",
  "lng": "126.816399276429",
  "url": "https://place.map.kakao.com/m/27543701",
  "category": [
   "음식점 ",
   " 한식 ",
   " 육류,고기 ",
   " 곱창,막창 ",
   " 하우돈곱창"
  ]
 },
 {
  "name": "방화동교동짬뽕",
  "type": "중화요리",
  "star": 4.5,
  "reply": 28,
  "review": 33,
  "tvshow": "",
  "address": "서울 강서구 금낭화로24나길 21",
  "lat": "37.57725372854616",
  "lng": "126.81575560825779",
  "url": "https://place.map.kakao.com/m/25858128",
  "category": [
   "음식점 ",
   " 중식 ",
   " 중화요리"
  ]
 },
 {
  "name": "신촌기사식당",
  "type": "기사식당",
  "star": 3.5,
  "reply": 19,
  "review": 40,
  "tvshow": "tv소개",
  "address": "서울 강서구 방화대로 408 세원빌딩 1층",
  "lat": "37.5772135558229",
  "lng": "126.81715380311",
  "url": "https://place.map.kakao.com/m/16046189",
  "category": [
   "음식점 ",
   " 기사식당"
  ]
 },
 {
  "name": "수갈비",
  "type": "갈비",
  "star": 4.3,
  "reply": 10,
  "review": 43,
  "tvshow": "",
  "address": "경기 김포시 김포한강3로237번길 17",
  "lat": "37.6382165202191",
  "lng": "126.664151163763",
  "url": "https://place.map.kakao.com/m/538407191",
  "category": [
   "음식점 ",
   " 한식 ",
   " 육류,고기 ",
   " 갈비"
  ]
 },
 {
  "name": "고마니면가",
  "type": "국수",
  "star": 4.9,
  "reply": 19,
  "review": 63,
  "tvshow": "",
  "address": "경기 김포시 초당로16번길 114-1 1층",
  "lat": "37.6390743816146",
  "lng": "126.673179546562",
  "url": "https://place.map.kakao.com/m/1853944306",
  "category": [
   "음식점 ",
   " 한식 ",
   " 국수"
  ]
 },
 {
  "name": "썸원스브레드",
  "type": "제과,베이커리",
  "star": 4.3,
  "reply": 10,
  "review": 35,
  "tvshow": "",
  "address": "경기 김포시 김포한강3로237번길 9",
  "lat": "37.63850279490325",
  "lng": "126.66438440348735",
  "url": "https://place.map.kakao.com/m/1333454221",
  "category": [
   "음식점 ",
   " 간식 ",
   " 제과,베이커리"
  ]
 },
 {
  "name": "내일봬요",
  "type": "제과,베이커리",
  "star": 4.4,
  "reply": 12,
  "review": 29,
  "tvshow": "",
  "address": "경기 김포시 초당로16번길 114-3 1층",
  "lat": "37.6392293108157",
  "lng": "126.673165271913",
  "url": "https://place.map.kakao.com/m/840111790",
  "category": [
   "음식점 ",
   " 간식 ",
   " 제과,베이커리"
  ]
 },
 {
  "name": "피오렌떼",
  "type": "이탈리안",
  "star": 3.8,
  "reply": 13,
  "review": 119,
  "tvshow": "",
  "address": "경기 김포시 태장로 820 엠프라자 201호",
  "lat": "37.636836030312",
  "lng": "126.67699157233",
  "url": "https://place.map.kakao.com/m/1513583972",
  "category": [
   "음식점 ",
   " 양식 ",
   " 이탈리안"
  ]
 },
 {
  "name": "금포칼국수",
  "type": "국수",
  "star": 3.5,
  "reply": 15,
  "review": 432,
  "tvshow": "",
  "address": "경기 김포시 김포한강2로23번길 60 1층",
  "lat": "37.640606352229",
  "lng": "126.679862182861",
  "url": "https://place.map.kakao.com/m/1011073978",
  "category": [
   "음식점 ",
   " 한식 ",
   " 국수"
  ]
 },
 {
  "name": "엄마의거리",
  "type": "디저트카페",
  "star": 3.9,
  "reply": 10,
  "review": 47,
  "tvshow": "",
  "address": "경기 김포시 태장로795번길 143 1층 102호",
  "lat": "37.6403181301389",
  "lng": "126.683906018272",
  "url": "https://place.map.kakao.com/m/1336472363",
  "category": [
   "음식점 ",
   " 카페 ",
   " 테마카페 ",
   " 디저트카페"
  ]
 },
 {
  "name": "서가앤쿡 김포점",
  "type": "양식",
  "star": 3.8,
  "reply": 12,
  "review": 49,
  "tvshow": "",
  "address": "경기 김포시 태장로 784 2층",
  "lat": "37.639052291501",
  "lng": "126.679578804323",
  "url": "https://place.map.kakao.com/m/1039996477",
  "category": [
   "음식점 ",
   " 양식 ",
   " 서가앤쿡"
  ]
 },
 {
  "name": "빠냐데로",
  "type": "제과,베이커리",
  "star": 4.4,
  "reply": 12,
  "review": 25,
  "tvshow": "",
  "address": "경기 김포시 김포한강2로23번길 14 강변프라자 103호",
  "lat": "37.6422072216153",
  "lng": "126.67880384826007",
  "url": "https://place.map.kakao.com/m/26094591",
  "category": [
   "음식점 ",
   " 간식 ",
   " 제과,베이커리"
  ]
 },
 {
  "name": "엄마의봄날",
  "type": "한정식",
  "star": 3.9,
  "reply": 15,
  "review": 62,
  "tvshow": "",
  "address": "경기 김포시 모담공원로 178 1층",
  "lat": "37.6472306852483",
  "lng": "126.697746121071",
  "url": "https://place.map.kakao.com/m/540653269",
  "category": [
   "음식점 ",
   " 한식 ",
   " 한정식"
  ]
 },
 {
  "name": "스테이온",
  "type": "카페",
  "star": 3.9,
  "reply": 10,
  "review": 132,
  "tvshow": "",
  "address": "경기 김포시 김포한강11로140번길 68 1층",
  "lat": "37.64771931136745",
  "lng": "126.68343046838528",
  "url": "https://place.map.kakao.com/m/1416380054",
  "category": [
   "음식점 ",
   " 카페"
  ]
 },
 {
  "name": "5테이블 운양본점",
  "type": "이탈리안",
  "star": 4.5,
  "reply": 19,
  "review": 48,
  "tvshow": "",
  "address": "경기 김포시 김포한강11로 300 한강에비뉴파크 1층",
  "lat": "37.655300289369016",
  "lng": "126.68247582580057",
  "url": "https://place.map.kakao.com/m/27564388",
  "category": [
   "음식점 ",
   " 양식 ",
   " 이탈리안"
  ]
 },
 {
  "name": "개성손만두요리전문점 김포장기점",
  "type": "",
  "star": 4.0,
  "reply": 16,
  "review": 28,
  "tvshow": "",
  "address": "경기 김포시 김포한강2로24번길 116-77",
  "lat": "37.647363470910165",
  "lng": "126.67680208026827",
  "url": "https://place.map.kakao.com/m/1114157775",
  "category": [
   "음식점 ",
   " 분식"
  ]
 },
 {
  "name": "브루디",
  "type": "카페",
  "star": 4.8,
  "reply": 13,
  "review": 81,
  "tvshow": "",
  "address": "경기 김포시 김포한강11로140번길 76 1층",
  "lat": "37.6478739862074",
  "lng": "126.683321031388",
  "url": "https://place.map.kakao.com/m/2082921497",
  "category": [
   "음식점 ",
   " 카페"
  ]
 },
 {
  "name": "파파스시",
  "type": "초밥,롤",
  "star": 3.9,
  "reply": 16,
  "review": 31,
  "tvshow": "",
  "address": "경기 김포시 김포한강2로24번길 78-120",
  "lat": "37.6458398039806",
  "lng": "126.676105027915",
  "url": "https://place.map.kakao.com/m/27506631",
  "category": [
   "음식점 ",
   " 일식 ",
   " 초밥,롤"
  ]
 },
 {
  "name": "버거307 김포본점",
  "type": "햄버거",
  "star": 4.0,
  "reply": 22,
  "review": 40,
  "tvshow": "",
  "address": "경기 김포시 김포한강11로140번길 8-8 1층",
  "lat": "37.6460645283988",
  "lng": "126.681873810064",
  "url": "https://place.map.kakao.com/m/27601587",
  "category": [
   "음식점 ",
   " 양식 ",
   " 햄버거"
  ]
 },
 {
  "name": "나는바다다 한강신도시점",
  "type": "회",
  "star": 3.6,
  "reply": 11,
  "review": 24,
  "tvshow": "",
  "address": "경기 김포시 김포한강11로140번길 23-27",
  "lat": "37.6470224756534",
  "lng": "126.680283360327",
  "url": "https://place.map.kakao.com/m/26895477",
  "category": [
   "음식점 ",
   " 한식 ",
   " 해물,생선 ",
   " 회"
  ]
 },
 {
  "name": "준식당",
  "type": "중식",
  "star": 3.9,
  "reply": 15,
  "review": 50,
  "tvshow": "",
  "address": "경기 김포시 김포한강11로140번길 71 1층",
  "lat": "37.6477505169736",
  "lng": "126.682972552126",
  "url": "https://place.map.kakao.com/m/566155667",
  "category": [
   "음식점 ",
   " 중식"
  ]
 },
 {
  "name": "천사곱창 김포운양역점",
  "type": "곱창,막창",
  "star": 4.7,
  "reply": 13,
  "review": 72,
  "tvshow": "",
  "address": "경기 김포시 김포한강11로 288-32 골든스퀘어 1층 109호",
  "lat": "37.654312940654094",
  "lng": "126.68420027025122",
  "url": "https://place.map.kakao.com/m/632099117",
  "category": [
   "음식점 ",
   " 한식 ",
   " 육류,고기 ",
   " 곱창,막창"
  ]
 },
 {
  "name": "심세정 김포점",
  "type": "디저트카페",
  "star": 3.5,
  "reply": 11,
  "review": 52,
  "tvshow": "",
  "address": "경기 김포시 김포한강4로212번길 62",
  "lat": "37.6515619164263",
  "lng": "126.661656988946",
  "url": "https://place.map.kakao.com/m/456030228",
  "category": [
   "음식점 ",
   " 카페 ",
   " 테마카페 ",
   " 디저트카페"
  ]
 },
 {
  "name": "풍천장어마당",
  "type": "장어",
  "star": 4.0,
  "reply": 11,
  "review": 40,
  "tvshow": "",
  "address": "경기 김포시 운곡로 14 1층",
  "lat": "37.6497745992498",
  "lng": "126.659231073493",
  "url": "https://place.map.kakao.com/m/441900524",
  "category": [
   "음식점 ",
   " 한식 ",
   " 해물,생선 ",
   " 장어"
  ]
 },
 {
  "name": "우리땅참숯갈비",
  "type": "갈비",
  "star": 4.9,
  "reply": 10,
  "review": 27,
  "tvshow": "",
  "address": "경기 김포시 운곡로 3",
  "lat": "37.65076298846028",
  "lng": "126.65830188781023",
  "url": "https://place.map.kakao.com/m/15528271",
  "category": [
   "음식점 ",
   " 한식 ",
   " 육류,고기 ",
   " 갈비"
  ]
 },
 {
  "name": "리도체 석모점",
  "type": "이탈리안",
  "star": 3.5,
  "reply": 15,
  "review": 26,
  "tvshow": "",
  "address": "경기 김포시 양촌읍 김포한강4로 259 1층",
  "lat": "37.650845015048",
  "lng": "126.654294607034",
  "url": "https://place.map.kakao.com/m/1746519071",
  "category": [
   "음식점 ",
   " 양식 ",
   " 이탈리안"
  ]
 },
 {
  "name": "어천심",
  "type": "해물,생선",
  "star": 4.5,
  "reply": 12,
  "review": 20,
  "tvshow": "",
  "address": "경기 김포시 양촌읍 김포한강4로265번길 15 나동 1,2층",
  "lat": "37.6502664286695",
  "lng": "126.653626455038",
  "url": "https://place.map.kakao.com/m/1414007920",
  "category": [
   "음식점 ",
   " 한식 ",
   " 해물,생선"
  ]
 },
 {
  "name": "닭갈비제작소 장기동점",
  "type": "닭요리",
  "star": 3.7,
  "reply": 10,
  "review": 27,
  "tvshow": "",
  "address": "경기 김포시 김포한강4로 118",
  "lat": "37.6446834835729",
  "lng": "126.668513871602",
  "url": "https://place.map.kakao.com/m/293053807",
  "category": [
   "음식점 ",
   " 한식 ",
   " 육류,고기 ",
   " 닭요리"
  ]
 },
 {
  "name": "김영화부대찌개 장기점",
  "type": "찌개,전골",
  "star": 3.5,
  "reply": 11,
  "review": 39,
  "tvshow": "",
  "address": "경기 김포시 김포한강4로 142-6",
  "lat": "37.6463743909203",
  "lng": "126.666194818996",
  "url": "https://place.map.kakao.com/m/27419101",
  "category": [
   "음식점 ",
   " 한식 ",
   " 찌개,전골"
  ]
 },
 {
  "name": "락원",
  "type": "한식",
  "star": 4.1,
  "reply": 89,
  "review": 207,
  "tvshow": "tv소개",
  "address": "경기 김포시 김포한강1로97번길 32-22",
  "lat": "37.64744664209712",
  "lng": "126.67071344806804",
  "url": "https://place.map.kakao.com/m/26547087",
  "category": [
   "음식점 ",
   " 한식"
  ]
 },
 {
  "name": "상화",
  "type": "찌개,전골",
  "star": 4.1,
  "reply": 50,
  "review": 56,
  "tvshow": "tv소개",
  "address": "경기 김포시 김포한강1로97번길 16",
  "lat": "37.6470710671025",
  "lng": "126.670438625484",
  "url": "https://place.map.kakao.com/m/26840524",
  "category": [
   "음식점 ",
   " 한식 ",
   " 찌개,전골"
  ]
 },
 {
  "name": "그믐달",
  "type": "카페",
  "star": 4.8,
  "reply": 12,
  "review": 69,
  "tvshow": "",
  "address": "경기 김포시 김포한강1로78번길 61-12 1층",
  "lat": "37.6436952450436",
  "lng": "126.673408577245",
  "url": "https://place.map.kakao.com/m/504276125",
  "category": [
   "음식점 ",
   " 카페"
  ]
 },
 {
  "name": "정가네화덕구이족발",
  "type": "족발,보쌈",
  "star": 4.4,
  "reply": 10,
  "review": 39,
  "tvshow": "tv소개",
  "address": "경기 김포시 김포한강1로78번길 28",
  "lat": "37.64406470477252",
  "lng": "126.6711589449568",
  "url": "https://place.map.kakao.com/m/27506018",
  "category": [
   "음식점 ",
   " 한식 ",
   " 육류,고기 ",
   " 족발,보쌈"
  ]
 },
 {
  "name": "김희라 왕돈까스전문점",
  "type": "돈까스,우동",
  "star": 3.6,
  "reply": 16,
  "review": 71,
  "tvshow": "",
  "address": "경기 김포시 김포한강1로84번길 11",
  "lat": "37.6454766244085",
  "lng": "126.671188979478",
  "url": "https://place.map.kakao.com/m/16963883",
  "category": [
   "음식점 ",
   " 일식 ",
   " 돈까스,우동"
  ]
 },
 {
  "name": "화사랑화로구이",
  "type": "육류,고기",
  "star": 4.0,
  "reply": 12,
  "review": 71,
  "tvshow": "",
  "address": "경기 김포시 김포한강1로 85",
  "lat": "37.6457294501531",
  "lng": "126.670095559288",
  "url": "https://place.map.kakao.com/m/27392141",
  "category": [
   "음식점 ",
   " 한식 ",
   " 육류,고기"
  ]
 },
 {
  "name": "플랩잭팬트리 장기점",
  "type": "이탈리안",
  "star": 3.6,
  "reply": 10,
  "review": 45,
  "tvshow": "",
  "address": "경기 김포시 김포한강1로84번길 17-5",
  "lat": "37.6455350061773",
  "lng": "126.671447067608",
  "url": "https://place.map.kakao.com/m/27376966",
  "category": [
   "음식점 ",
   " 양식 ",
   " 이탈리안"
  ]
 },
 {
  "name": "예향정 김포점",
  "type": "한식",
  "star": 4.2,
  "reply": 17,
  "review": 32,
  "tvshow": "",
  "address": "경기 김포시 김포한강1로 77-23",
  "lat": "37.645987708460325",
  "lng": "126.66965817311869",
  "url": "https://place.map.kakao.com/m/980017272",
  "category": [
   "음식점 ",
   " 한식"
  ]
 },
 {
  "name": "수우스커피",
  "type": "커피전문점",
  "star": 4.6,
  "reply": 16,
  "review": 59,
  "tvshow": "",
  "address": "경기 김포시 김포한강1로98번길 17-88 1층",
  "lat": "37.6470870804775",
  "lng": "126.672305932905",
  "url": "https://place.map.kakao.com/m/1356032235",
  "category": [
   "음식점 ",
   " 카페 ",
   " 커피전문점"
  ]
 },
 {
  "name": "착한아구찜",
  "type": "아구",
  "star": 3.7,
  "reply": 15,
  "review": 26,
  "tvshow": "",
  "address": "경기 김포시 김포한강1로78번길 62",
  "lat": "37.6432463419748",
  "lng": "126.672680852247",
  "url": "https://place.map.kakao.com/m/27215276",
  "category": [
   "음식점 ",
   " 한식 ",
   " 해물,생선 ",
   " 아구"
  ]
 },
 {
  "name": "장기동쭈꾸미집 본점",
  "type": "해물,생선",
  "star": 3.7,
  "reply": 18,
  "review": 25,
  "tvshow": "",
  "address": "경기 김포시 김포한강1로84번길 17-3",
  "lat": "37.6454085801577",
  "lng": "126.671343379985",
  "url": "https://place.map.kakao.com/m/25068881",
  "category": [
   "음식점 ",
   " 한식 ",
   " 해물,생선"
  ]
 },
 {
  "name": "킹의전설 김포장기점",
  "type": "게,대게",
  "star": 4.4,
  "reply": 69,
  "review": 182,
  "tvshow": "",
  "address": "경기 김포시 김포한강1로97번길 10-15 유한빌 1층",
  "lat": "37.64787039311053",
  "lng": "126.67146397537495",
  "url": "https://place.map.kakao.com/m/26525807",
  "category": [
   "음식점 ",
   " 한식 ",
   " 해물,생선 ",
   " 게,대게"
  ]
 },
 {
  "name": "미호소바",
  "type": "일식",
  "star": 4.5,
  "reply": 10,
  "review": 30,
  "tvshow": "",
  "address": "경기 김포시 김포한강1로97번길 32-3",
  "lat": "37.6477198531433",
  "lng": "126.670467486346",
  "url": "https://place.map.kakao.com/m/1257376219",
  "category": [
   "음식점 ",
   " 일식"
  ]
 },
 {
  "name": "춘천명동1번지닭갈비",
  "type": "닭요리",
  "star": 4.7,
  "reply": 20,
  "review": 28,
  "tvshow": "",
  "address": "경기 김포시 김포한강1로97번길 32-17 101호",
  "lat": "37.6485795607917",
  "lng": "126.67117530011812",
  "url": "https://place.map.kakao.com/m/661948245",
  "category": [
   "음식점 ",
   " 한식 ",
   " 육류,고기 ",
   " 닭요리"
  ]
 },
 {
  "name": "나인블럭 김포점",
  "type": "카페",
  "star": 3.9,
  "reply": 19,
  "review": 184,
  "tvshow": "",
  "address": "경기 김포시 김포대로 1466-48 1층",
  "lat": "37.6568121031934",
  "lng": "126.669026589554",
  "url": "https://place.map.kakao.com/m/2066154397",
  "category": [
   "음식점 ",
   " 카페"
  ]
 },
 {
  "name": "양평신내서울해장국 김포운양점",
  "type": "해장국",
  "star": 4.4,
  "reply": 35,
  "review": 85,
  "tvshow": "",
  "address": "경기 김포시 김포대로 1508 1층",
  "lat": "37.65817858553753",
  "lng": "126.66795750099756",
  "url": "https://place.map.kakao.com/m/11974125",
  "category": [
   "음식점 ",
   " 한식 ",
   " 해장국"
  ]
 },
 {
  "name": "평창진부막국수",
  "type": "국수",
  "star": 4.6,
  "reply": 16,
  "review": 156,
  "tvshow": "",
  "address": "경기 김포시 김포대로1518번길 29",
  "lat": "37.6601947067406",
  "lng": "126.66722319882",
  "url": "https://place.map.kakao.com/m/980649139",
  "category": [
   "음식점 ",
   " 한식 ",
   " 국수"
  ]
 },
 {
  "name": "블랑제리115 장기점",
  "type": "제과,베이커리",
  "star": 3.7,
  "reply": 21,
  "review": 125,
  "tvshow": "",
  "address": "경기 김포시 김포한강6로 115",
  "lat": "37.6523297873952",
  "lng": "126.661739628056",
  "url": "https://place.map.kakao.com/m/1081151666",
  "category": [
   "음식점 ",
   " 간식 ",
   " 제과,베이커리"
  ]
 },
 {
  "name": "고구려짬뽕10101 김포한강신도시점",
  "type": "",
  "star": 3.8,
  "reply": 23,
  "review": 260,
  "tvshow": "",
  "address": "경기 김포시 김포한강4로212번길 74 1층",
  "lat": "37.65214992859596",
  "lng": "126.66185716292124",
  "url": "https://place.map.kakao.com/m/1160288753",
  "category": [
   "음식점 ",
   " 중식 ",
   " 중화요리"
  ]
 },
 {
  "name": "뚝방국수",
  "type": "국수",
  "star": 3.9,
  "reply": 14,
  "review": 77,
  "tvshow": "tv소개",
  "address": "경기 김포시 금포로 1117-12",
  "lat": "37.6458629228668",
  "lng": "126.707002292714",
  "url": "https://place.map.kakao.com/m/16514310",
  "category": [
   "음식점 ",
   " 한식 ",
   " 국수"
  ]
 },
 {
  "name": "백세삼계탕",
  "type": "삼계탕",
  "star": 4.6,
  "reply": 69,
  "review": 145,
  "tvshow": "",
  "address": "경기 김포시 홍도평로 7",
  "lat": "37.6312087504386",
  "lng": "126.711142726163",
  "url": "https://place.map.kakao.com/m/1840162514",
  "category": [
   "음식점 ",
   " 한식 ",
   " 육류,고기 ",
   " 닭요리 ",
   " 삼계탕"
  ]
 },
 {
  "name": "홍린",
  "type": "중식",
  "star": 3.7,
  "reply": 11,
  "review": 77,
  "tvshow": "",
  "address": "경기 김포시 걸포로 153 1층",
  "lat": "37.6443166168816",
  "lng": "126.701166223351",
  "url": "https://place.map.kakao.com/m/2134677164",
  "category": [
   "음식점 ",
   " 중식"
  ]
 },
 {
  "name": "박천순대국 본점",
  "type": "순대",
  "star": 3.7,
  "reply": 25,
  "review": 22,
  "tvshow": "",
  "address": "경기 김포시 북변중로68번길 16-9",
  "lat": "37.6267493942863",
  "lng": "126.710616235506",
  "url": "https://place.map.kakao.com/m/26928724",
  "category": [
   "음식점 ",
   " 한식 ",
   " 순대"
  ]
 },
 {
  "name": "원가든능이버섯백숙 본가",
  "type": "닭요리",
  "star": 4.1,
  "reply": 36,
  "review": 21,
  "tvshow": "",
  "address": "경기 고양시 일산서구 멱절길 15",
  "lat": "37.6604705580981",
  "lng": "126.725372714424",
  "url": "https://place.map.kakao.com/m/9611497",
  "category": [
   "음식점 ",
   " 한식 ",
   " 육류,고기 ",
   " 닭요리"
  ]
 },
 {
  "name": "발아보다",
  "type": "디저트카페",
  "star": 3.6,
  "reply": 10,
  "review": 37,
  "tvshow": "",
  "address": "경기 김포시 중봉로 56 1,2층",
  "lat": "37.626898034694",
  "lng": "126.698023319135",
  "url": "https://place.map.kakao.com/m/1808631698",
  "category": [
   "음식점 ",
   " 카페 ",
   " 테마카페 ",
   " 디저트카페"
  ]
 },
 {
  "name": "평양손만두 2호점",
  "type": "분식",
  "star": 4.0,
  "reply": 63,
  "review": 94,
  "tvshow": "",
  "address": "경기 고양시 일산서구 구산로54번길 241",
  "lat": "37.6904728105358",
  "lng": "126.713148816765",
  "url": "https://place.map.kakao.com/m/19006024",
  "category": [
   "음식점 ",
   " 분식"
  ]
 },
 {
  "name": "플레이그라운드 브루어리 일산탭하우스",
  "type": "",
  "star": 4.1,
  "reply": 33,
  "review": 58,
  "tvshow": "",
  "address": "경기 고양시 일산서구 이산포길 246-13 1층",
  "lat": "37.66773741498595",
  "lng": "126.70217403878654",
  "url": "https://place.map.kakao.com/m/26862569",
  "category": [
   "음식점 ",
   " 술집 ",
   " 호프,요리주점"
  ]
 },
 {
  "name": "가온베이커리",
  "type": "제과,베이커리",
  "star": 4.0,
  "reply": 27,
  "review": 61,
  "tvshow": "",
  "address": "경기 고양시 일산서구 대화로 124",
  "lat": "37.66981904863326",
  "lng": "126.73479590019441",
  "url": "https://place.map.kakao.com/m/1649618490",
  "category": [
   "음식점 ",
   " 간식 ",
   " 제과,베이커리"
  ]
 },
 {
  "name": "구산정청국장집",
  "type": "찌개,전골",
  "star": 3.7,
  "reply": 56,
  "review": 63,
  "tvshow": "",
  "address": "경기 고양시 일산서구 송산로 228",
  "lat": "37.68262269675289",
  "lng": "126.70406442889377",
  "url": "https://place.map.kakao.com/m/9663209",
  "category": [
   "음식점 ",
   " 한식 ",
   " 찌개,전골"
  ]
 },
 {
  "name": "송림병",
  "type": "떡,한과",
  "star": 4.5,
  "reply": 15,
  "review": 22,
  "tvshow": "tv소개",
  "address": "경기 고양시 일산서구 대화로 130",
  "lat": "37.67025491439961",
  "lng": "126.73470367138978",
  "url": "https://place.map.kakao.com/m/9150855",
  "category": [
   "음식점 ",
   " 간식 ",
   " 떡,한과"
  ]
 },
 {
  "name": "작은정원쭈꾸미볶음",
  "type": "해물,생선",
  "star": 3.8,
  "reply": 16,
  "review": 78,
  "tvshow": "",
  "address": "경기 고양시 일산서구 송산로374번길 9",
  "lat": "37.6843100250536",
  "lng": "126.720604991014",
  "url": "https://place.map.kakao.com/m/24164882",
  "category": [
   "음식점 ",
   " 한식 ",
   " 해물,생선"
  ]
 },
 {
  "name": "킹부대찌개 테이크아웃 본점",
  "type": "찌개,전골",
  "star": 4.2,
  "reply": 10,
  "review": 46,
  "tvshow": "",
  "address": "경기 고양시 일산서구 가좌3로 19 성원프라자 1층",
  "lat": "37.686738325902375",
  "lng": "126.71953925302064",
  "url": "https://place.map.kakao.com/m/22352849",
  "category": [
   "음식점 ",
   " 한식 ",
   " 찌개,전골"
  ]
 },
 {
  "name": "뱀부포레스트",
  "type": "양식",
  "star": 3.8,
  "reply": 56,
  "review": 88,
  "tvshow": "",
  "address": "경기 김포시 하성면 금포로1915번길 7",
  "lat": "37.69689383720126",
  "lng": "126.66174135979765",
  "url": "https://place.map.kakao.com/m/26812741",
  "category": [
   "음식점 ",
   " 양식"
  ]
 },
 {
  "name": "물회의정석",
  "type": "회",
  "star": 4.0,
  "reply": 19,
  "review": 84,
  "tvshow": "tv소개",
  "address": "경기 김포시 양촌읍 김포대로 1644",
  "lat": "37.6645548128102",
  "lng": "126.655704430218",
  "url": "https://place.map.kakao.com/m/1817313093",
  "category": [
   "음식점 ",
   " 한식 ",
   " 해물,생선 ",
   " 회"
  ]
 },
 {
  "name": "산들마을 김포본점",
  "type": "육류,고기",
  "star": 4.7,
  "reply": 12,
  "review": 37,
  "tvshow": "",
  "address": "경기 김포시 양촌읍 김포대로 1644",
  "lat": "37.6648786438547",
  "lng": "126.655526125948",
  "url": "https://place.map.kakao.com/m/1822054225",
  "category": [
   "음식점 ",
   " 한식 ",
   " 육류,고기"
  ]
 },
 {
  "name": "너랑나랑한우곱창 본점",
  "type": "곱창,막창",
  "star": 3.9,
  "reply": 16,
  "review": 69,
  "tvshow": "",
  "address": "경기 고양시 일산동구 호수로 340-25 백석역동문굿모닝힐2 202동 1층 101,102호",
  "lat": "37.638544872766296",
  "lng": "126.78764553866729",
  "url": "https://place.map.kakao.com/m/11773938",
  "category": [
   "음식점 ",
   " 한식 ",
   " 육류,고기 ",
   " 곱창,막창"
  ]
 },
 {
  "name": "쿡파스타",
  "type": "이탈리안",
  "star": 4.2,
  "reply": 19,
  "review": 63,
  "tvshow": "",
  "address": "경기 고양시 일산동구 호수로 340-11",
  "lat": "37.63821726378237",
  "lng": "126.78683978514701",
  "url": "https://place.map.kakao.com/m/27425396",
  "category": [
   "음식점 ",
   " 양식 ",
   " 이탈리안"
  ]
 },
 {
  "name": "정동팥집",
  "type": "카페",
  "star": 4.0,
  "reply": 62,
  "review": 56,
  "tvshow": "",
  "address": "경기 고양시 일산동구 장항로 86",
  "lat": "37.6323020147887",
  "lng": "126.786181476177",
  "url": "https://place.map.kakao.com/m/21355982",
  "category": [
   "음식점 ",
   " 카페"
  ]
 },
 {
  "name": "안녕쌀국수",
  "type": "베트남음식",
  "star": 3.7,
  "reply": 11,
  "review": 53,
  "tvshow": "",
  "address": "경기 고양시 일산동구 호수로 358-26",
  "lat": "37.6392336004487",
  "lng": "126.78685500947378",
  "url": "https://place.map.kakao.com/m/147548584",
  "category": [
   "음식점 ",
   " 아시아음식 ",
   " 동남아음식 ",
   " 베트남음식"
  ]
 },
 {
  "name": "비가오면",
  "type": "국수",
  "star": 3.8,
  "reply": 18,
  "review": 35,
  "tvshow": "tv소개",
  "address": "경기 고양시 일산동구 호수로 358-39",
  "lat": "37.64022138388798",
  "lng": "126.78702440593571",
  "url": "https://place.map.kakao.com/m/14636156",
  "category": [
   "음식점 ",
   " 한식 ",
   " 국수"
  ]
 },
 {
  "name": "안녕아가",
  "type": "애견카페",
  "star": 4.9,
  "reply": 11,
  "review": 27,
  "tvshow": "",
  "address": "경기 고양시 일산동구 호수로 336 브라운스톤오피스텔 1층 131호",
  "lat": "37.63713383386693",
  "lng": "126.78759064018988",
  "url": "https://place.map.kakao.com/m/410606865",
  "category": [
   "음식점 ",
   " 카페 ",
   " 테마카페 ",
   " 애견카페"
  ]
 },
 {
  "name": "파파떡볶이",
  "type": "떡볶이",
  "star": 3.7,
  "reply": 19,
  "review": 28,
  "tvshow": "",
  "address": "경기 고양시 일산동구 장백로 56 크리스탈빌딩 108호",
  "lat": "37.64291666865603",
  "lng": "126.7867719708791",
  "url": "https://place.map.kakao.com/m/24711156",
  "category": [
   "음식점 ",
   " 분식 ",
   " 떡볶이"
  ]
 },
 {
  "name": "장수토종삼계탕",
  "type": "삼계탕",
  "star": 3.8,
  "reply": 22,
  "review": 31,
  "tvshow": "",
  "address": "경기 고양시 일산동구 호수로446번길 7-1 1층",
  "lat": "37.64434229292886",
  "lng": "126.77812363753286",
  "url": "https://place.map.kakao.com/m/8052017",
  "category": [
   "음식점 ",
   " 한식 ",
   " 육류,고기 ",
   " 닭요리 ",
   " 삼계탕"
  ]
 },
 {
  "name": "소플러스 일산점",
  "type": "육류,고기",
  "star": 3.9,
  "reply": 17,
  "review": 43,
  "tvshow": "",
  "address": "경기 고양시 일산동구 장백로 82",
  "lat": "37.6444339559767",
  "lng": "126.784805138758",
  "url": "https://place.map.kakao.com/m/27602105",
  "category": [
   "음식점 ",
   " 한식 ",
   " 육류,고기"
  ]
 },
 {
  "name": "초원샤브샤브뷔페점 일산점",
  "type": "샤브샤브",
  "star": 4.5,
  "reply": 11,
  "review": 63,
  "tvshow": "",
  "address": "경기 고양시 일산동구 백석로71번길 11",
  "lat": "37.64721374270182",
  "lng": "126.78544073246145",
  "url": "https://place.map.kakao.com/m/1611254469",
  "category": [
   "음식점 ",
   " 샤브샤브"
  ]
 },
 {
  "name": "뺑오마담",
  "type": "제과,베이커리",
  "star": 3.8,
  "reply": 11,
  "review": 57,
  "tvshow": "",
  "address": "경기 고양시 일산동구 강석로 33",
  "lat": "37.6459739236597",
  "lng": "126.785403507128",
  "url": "https://place.map.kakao.com/m/1917811481",
  "category": [
   "음식점 ",
   " 간식 ",
   " 제과,베이커리"
  ]
 },
 {
  "name": "스카이램 일산본점",
  "type": "갈비",
  "star": 4.8,
  "reply": 28,
  "review": 27,
  "tvshow": "",
  "address": "경기 고양시 일산동구 강송로87번길 54-4",
  "lat": "37.646016032167935",
  "lng": "126.78676311115365",
  "url": "https://place.map.kakao.com/m/1350139798",
  "category": [
   "음식점 ",
   " 한식 ",
   " 육류,고기 ",
   " 갈비"
  ]
 },
 {
  "name": "카오짜이",
  "type": "태국음식",
  "star": 3.9,
  "reply": 37,
  "review": 146,
  "tvshow": "tv소개",
  "address": "경기 고양시 일산동구 백석로71번길 44 1층",
  "lat": "37.64837224268625",
  "lng": "126.78436318298377",
  "url": "https://place.map.kakao.com/m/2135712370",
  "category": [
   "음식점 ",
   " 아시아음식 ",
   " 동남아음식 ",
   " 태국음식"
  ]
 },
 {
  "name": "백리단",
  "type": "카페",
  "star": 4.6,
  "reply": 13,
  "review": 93,
  "tvshow": "",
  "address": "경기 고양시 일산동구 백석로71번길 35",
  "lat": "37.6479903195368",
  "lng": "126.784414145099",
  "url": "https://place.map.kakao.com/m/980458945",
  "category": [
   "음식점 ",
   " 카페"
  ]
 },
 {
  "name": "미분당 일산점",
  "type": "베트남음식",
  "star": 3.8,
  "reply": 44,
  "review": 83,
  "tvshow": "",
  "address": "경기 고양시 일산동구 중앙로 1130 강촌마을6단지아파트상가 A동 8호 1층",
  "lat": "37.6501506378318",
  "lng": "126.779412900065",
  "url": "https://place.map.kakao.com/m/1680590313",
  "category": [
   "음식점 ",
   " 아시아음식 ",
   " 동남아음식 ",
   " 베트남음식"
  ]
 },
 {
  "name": "베이먼트",
  "type": "카페",
  "star": 4.7,
  "reply": 12,
  "review": 51,
  "tvshow": "",
  "address": "경기 고양시 일산동구 장백로 184 우신프라자 2층 211호",
  "lat": "37.6512708566435",
  "lng": "126.777174947782",
  "url": "https://place.map.kakao.com/m/1963466855",
  "category": [
   "음식점 ",
   " 카페"
  ]
 },
 {
  "name": "아소산 본점",
  "type": "일식집",
  "star": 3.5,
  "reply": 57,
  "review": 113,
  "tvshow": "",
  "address": "경기 고양시 일산동구 정발산로 128",
  "lat": "37.6591880946893",
  "lng": "126.78265914642",
  "url": "https://place.map.kakao.com/m/11101762",
  "category": [
   "음식점 ",
   " 일식 ",
   " 일식집"
  ]
 },
 {
  "name": "명성각",
  "type": "중화요리",
  "star": 4.0,
  "reply": 48,
  "review": 40,
  "tvshow": "",
  "address": "경기 고양시 일산동구 일산로286번길 8-5",
  "lat": "37.66119951529051",
  "lng": "126.78684662205097",
  "url": "https://place.map.kakao.com/m/9758564",
  "category": [
   "음식점 ",
   " 중식 ",
   " 중화요리"
  ]
 },
 {
  "name": "쿠우쿠우 일산호수공원점",
  "type": "해산물뷔페",
  "star": 3.7,
  "reply": 46,
  "review": 60,
  "tvshow": "",
  "address": "경기 고양시 일산동구 백마로 195 SK엠시티 3층",
  "lat": "37.6542538857104",
  "lng": "126.770996734128",
  "url": "https://place.map.kakao.com/m/2100665608",
  "category": [
   "음식점 ",
   " 뷔페 ",
   " 해산물뷔페 ",
   " 쿠우쿠우"
  ]
 },
 {
  "name": "훠궈타임",
  "type": "중식",
  "star": 4.1,
  "reply": 14,
  "review": 87,
  "tvshow": "",
  "address": "경기 고양시 일산동구 정발산로 19 지평프라자 2층 205호",
  "lat": "37.65672905193307",
  "lng": "126.77062195379946",
  "url": "https://place.map.kakao.com/m/585028663",
  "category": [
   "음식점 ",
   " 중식"
  ]
 },
 {
  "name": "오젠",
  "type": "초밥,롤",
  "star": 3.5,
  "reply": 13,
  "review": 36,
  "tvshow": "",
  "address": "경기 고양시 일산동구 정발산로 15",
  "lat": "37.65636850327407",
  "lng": "126.77054146815813",
  "url": "https://place.map.kakao.com/m/10078638",
  "category": [
   "음식점 ",
   " 일식 ",
   " 초밥,롤"
  ]
 },
 {
  "name": "만돈",
  "type": "돈까스,우동",
  "star": 3.9,
  "reply": 58,
  "review": 242,
  "tvshow": "",
  "address": "경기 고양시 일산동구 정발산로 24 웨스턴돔 B동 2층 255호",
  "lat": "37.6548265198508",
  "lng": "126.772658568742",
  "url": "https://place.map.kakao.com/m/311049889",
  "category": [
   "음식점 ",
   " 일식 ",
   " 돈까스,우동"
  ]
 },
 {
  "name": "청담초밥",
  "type": "초밥,롤",
  "star": 3.8,
  "reply": 36,
  "review": 59,
  "tvshow": "",
  "address": "경기 고양시 일산동구 백마로213번길 12",
  "lat": "37.6548364252169",
  "lng": "126.774062620529",
  "url": "https://place.map.kakao.com/m/1012904107",
  "category": [
   "음식점 ",
   " 일식 ",
   " 초밥,롤"
  ]
 },
 {
  "name": "라라플로아",
  "type": "카페",
  "star": 4.3,
  "reply": 12,
  "review": 50,
  "tvshow": "",
  "address": "경기 고양시 일산동구 정발산로 38",
  "lat": "37.6567158889059",
  "lng": "126.773133313123",
  "url": "https://place.map.kakao.com/m/1565773460",
  "category": [
   "음식점 ",
   " 카페"
  ]
 },
 {
  "name": "일산편백집",
  "type": "육류,고기",
  "star": 4.3,
  "reply": 24,
  "review": 47,
  "tvshow": "",
  "address": "경기 고양시 일산동구 정발산로 24 웨스턴돔2 B동 267호",
  "lat": "37.65498696333756",
  "lng": "126.77269434326365",
  "url": "https://place.map.kakao.com/m/1894823990",
  "category": [
   "음식점 ",
   " 한식 ",
   " 육류,고기"
  ]
 },
 {
  "name": "래격마라탕",
  "type": "중식",
  "star": 4.0,
  "reply": 15,
  "review": 85,
  "tvshow": "",
  "address": "경기 고양시 일산동구 정발산로 24 웨스턴돔1 A동 248호",
  "lat": "37.6559184101408",
  "lng": "126.772140742094",
  "url": "https://place.map.kakao.com/m/1916389689",
  "category": [
   "음식점 ",
   " 중식"
  ]
 },
 {
  "name": "고쿠텐 일산웨스턴돔점",
  "type": "일식",
  "star": 3.6,
  "reply": 20,
  "review": 97,
  "tvshow": "",
  "address": "경기 고양시 일산동구 정발산로 24 A동 2층 235,236호",
  "lat": "37.6558956887104",
  "lng": "126.772038818655",
  "url": "https://place.map.kakao.com/m/613443768",
  "category": [
   "음식점 ",
   " 일식"
  ]
 },
 {
  "name": "아시아아시아",
  "type": "인도음식",
  "star": 3.5,
  "reply": 50,
  "review": 64,
  "tvshow": "",
  "address": "경기 고양시 일산동구 정발산로 24 웨스턴돔 2층",
  "lat": "37.6550200809583",
  "lng": "126.77211402299",
  "url": "https://place.map.kakao.com/m/21326012",
  "category": [
   "음식점 ",
   " 아시아음식 ",
   " 인도음식"
  ]
 },
 {
  "name": "매드포갈릭 일산웨스턴돔점",
  "type": "패밀리레스토랑",
  "star": 3.5,
  "reply": 34,
  "review": 54,
  "tvshow": "",
  "address": "경기 고양시 일산동구 정발산로 24 웨스턴돔 B동 3층",
  "lat": "37.65495885212827",
  "lng": "126.77306839813613",
  "url": "https://place.map.kakao.com/m/525302729",
  "category": [
   "음식점 ",
   " 패밀리레스토랑 ",
   " 매드포갈릭"
  ]
 },
 {
  "name": "충칭마라탕마라샹궈",
  "type": "중식",
  "star": 4.0,
  "reply": 20,
  "review": 49,
  "tvshow": "",
  "address": "경기 고양시 일산동구 정발산로 24 웨스턴돔1",
  "lat": "37.65585805794087",
  "lng": "126.77214772604678",
  "url": "https://place.map.kakao.com/m/343752850",
  "category": [
   "음식점 ",
   " 중식"
  ]
 },
 {
  "name": "자연초밥",
  "type": "초밥,롤",
  "star": 3.7,
  "reply": 26,
  "review": 55,
  "tvshow": "",
  "address": "경기 고양시 일산동구 정발산로 24 웨스턴돔 2층 B-234호",
  "lat": "37.654776030287884",
  "lng": "126.7726405908829",
  "url": "https://place.map.kakao.com/m/1694775715",
  "category": [
   "음식점 ",
   " 일식 ",
   " 초밥,롤"
  ]
 },
 {
  "name": "현선이네",
  "type": "떡볶이",
  "star": 3.6,
  "reply": 10,
  "review": 22,
  "tvshow": "",
  "address": "경기 고양시 일산동구 정발산로 24",
  "lat": "37.65596438176126",
  "lng": "126.77215193416072",
  "url": "https://place.map.kakao.com/m/19790666",
  "category": [
   "음식점 ",
   " 분식 ",
   " 떡볶이"
  ]
 },
 {
  "name": "피슈마라홍탕 일산장항점",
  "type": "중화요리",
  "star": 4.4,
  "reply": 23,
  "review": 118,
  "tvshow": "",
  "address": "경기 고양시 일산동구 정발산로 24 웨스턴돔 2층",
  "lat": "37.6558956887104",
  "lng": "126.772038818655",
  "url": "https://place.map.kakao.com/m/1157261428",
  "category": [
   "음식점 ",
   " 중식 ",
   " 중화요리 ",
   " 피슈마라홍탕"
  ]
 },
 {
  "name": "무공돈까스 일산웨돔점",
  "type": "돈까스,우동",
  "star": 3.8,
  "reply": 16,
  "review": 160,
  "tvshow": "",
  "address": "경기 고양시 일산동구 정발산로 38 1층 145호",
  "lat": "37.65653123916833",
  "lng": "126.7726919020578",
  "url": "https://place.map.kakao.com/m/175903707",
  "category": [
   "음식점 ",
   " 일식 ",
   " 돈까스,우동"
  ]
 },
 {
  "name": "겐로쿠우동 일산점",
  "type": "돈까스,우동",
  "star": 3.7,
  "reply": 39,
  "review": 96,
  "tvshow": "",
  "address": "경기 고양시 일산동구 정발산로 24 웨스턴돔 B동 216호",
  "lat": "37.65482651985082",
  "lng": "126.77265856874239",
  "url": "https://place.map.kakao.com/m/25041912",
  "category": [
   "음식점 ",
   " 일식 ",
   " 돈까스,우동 ",
   " 겐로쿠우동"
  ]
 },
 {
  "name": "갈릭쿡앤스토리 웨스턴돔직영점",
  "type": "스테이크,립",
  "star": 4.4,
  "reply": 10,
  "review": 20,
  "tvshow": "",
  "address": "경기 고양시 일산동구 정발산로 24 B-208호",
  "lat": "37.65491939674038",
  "lng": "126.77269794895055",
  "url": "https://place.map.kakao.com/m/533472693",
  "category": [
   "음식점 ",
   " 양식 ",
   " 스테이크,립"
  ]
 },
 {
  "name": "니뽕내뽕 일산웨스턴돔점",
  "type": "퓨전요리",
  "star": 4.1,
  "reply": 13,
  "review": 23,
  "tvshow": "",
  "address": "경기 고양시 일산동구 정발산로 24 웨스턴돔 A-205호",
  "lat": "37.656333827512455",
  "lng": "126.77217460368587",
  "url": "https://place.map.kakao.com/m/23786457",
  "category": [
   "음식점 ",
   " 퓨전요리 ",
   " 니뽕내뽕"
  ]
 },
 {
  "name": "버섯매운탕 샤브샤브칼국수",
  "type": "샤브샤브",
  "star": 3.5,
  "reply": 11,
  "review": 38,
  "tvshow": "",
  "address": "경기 고양시 일산동구 정발산로 24 웨스턴돔A동 2층",
  "lat": "37.6559533598776",
  "lng": "126.772043175358",
  "url": "https://place.map.kakao.com/m/10372627",
  "category": [
   "음식점 ",
   " 샤브샤브"
  ]
 },
 {
  "name": "한톨돈부리",
  "type": "일식",
  "star": 3.8,
  "reply": 17,
  "review": 30,
  "tvshow": "",
  "address": "경기 고양시 일산동구 정발산로 24 웨스턴돔2 2층",
  "lat": "37.65483386740417",
  "lng": "126.77273107357485",
  "url": "https://place.map.kakao.com/m/1111223476",
  "category": [
   "음식점 ",
   " 일식"
  ]
 },
 {
  "name": "먹쌤마라탕",
  "type": "중식",
  "star": 4.5,
  "reply": 10,
  "review": 23,
  "tvshow": "",
  "address": "경기 고양시 일산동구 정발산로 24",
  "lat": "37.6548337189175",
  "lng": "126.772654013841",
  "url": "https://place.map.kakao.com/m/1168433658",
  "category": [
   "음식점 ",
   " 중식"
  ]
 },
 {
  "name": "포폴로피자",
  "type": "피자",
  "star": 4.1,
  "reply": 128,
  "review": 432,
  "tvshow": "",
  "address": "경기 고양시 일산동구 정발산로 43-20 1층 102호",
  "lat": "37.65845555012873",
  "lng": "126.7735337385683",
  "url": "https://place.map.kakao.com/m/108763820",
  "category": [
   "음식점 ",
   " 양식 ",
   " 피자"
  ]
 },
 {
  "name": "어랑생선구이 본점",
  "type": "해물,생선",
  "star": 3.5,
  "reply": 110,
  "review": 70,
  "tvshow": "",
  "address": "경기 고양시 일산동구 정발산로 31-9 레이크프라자II 107호",
  "lat": "37.6571673395156",
  "lng": "126.771762945103",
  "url": "https://place.map.kakao.com/m/21937028",
  "category": [
   "음식점 ",
   " 한식 ",
   " 해물,생선"
  ]
 },
 {
  "name": "훠시즌",
  "type": "중식",
  "star": 3.7,
  "reply": 15,
  "review": 103,
  "tvshow": "",
  "address": "경기 고양시 일산동구 중앙로 1286 아람마당 2층",
  "lat": "37.66052481032901",
  "lng": "126.77338238729857",
  "url": "https://place.map.kakao.com/m/1685552233",
  "category": [
   "음식점 ",
   " 중식"
  ]
 },
 {
  "name": "타마시스시",
  "type": "초밥,롤",
  "star": 4.0,
  "reply": 33,
  "review": 68,
  "tvshow": "",
  "address": "경기 고양시 일산동구 정발산로 43-7 메리트윈빌딩 108호",
  "lat": "37.657591313909556",
  "lng": "126.7729629239842",
  "url": "https://place.map.kakao.com/m/21235411",
  "category": [
   "음식점 ",
   " 일식 ",
   " 초밥,롤"
  ]
 },
 {
  "name": "한입소반",
  "type": "분식",
  "star": 3.7,
  "reply": 13,
  "review": 36,
  "tvshow": "",
  "address": "경기 고양시 일산동구 정발산로 43-20",
  "lat": "37.65832729393231",
  "lng": "126.77336866763979",
  "url": "https://place.map.kakao.com/m/2064098051",
  "category": [
   "음식점 ",
   " 분식"
  ]
 },
 {
  "name": "봉평메밀막국수 일산점",
  "type": "국수",
  "star": 3.6,
  "reply": 40,
  "review": 29,
  "tvshow": "",
  "address": "경기 고양시 일산동구 중앙로1261번길 19",
  "lat": "37.6583257846316",
  "lng": "126.772584434778",
  "url": "https://place.map.kakao.com/m/11965036",
  "category": [
   "음식점 ",
   " 한식 ",
   " 국수"
  ]
 },
 {
  "name": "츠지",
  "type": "일본식주점",
  "star": 3.5,
  "reply": 15,
  "review": 101,
  "tvshow": "",
  "address": "경기 고양시 일산동구 중앙로1261번길 17 라고프라자 103호",
  "lat": "37.65789728751264",
  "lng": "126.77277613359102",
  "url": "https://place.map.kakao.com/m/11880590",
  "category": [
   "음식점 ",
   " 술집 ",
   " 일본식주점"
  ]
 },
 {
  "name": "창고43 일산점",
  "type": "육류,고기",
  "star": 3.8,
  "reply": 73,
  "review": 69,
  "tvshow": "",
  "address": "경기 고양시 일산동구 정발산로 21",
  "lat": "37.6569499990523",
  "lng": "126.771192442239",
  "url": "https://place.map.kakao.com/m/17209463",
  "category": [
   "음식점 ",
   " 한식 ",
   " 육류,고기"
  ]
 },
 {
  "name": "라이크라이크",
  "type": "디저트카페",
  "star": 3.5,
  "reply": 29,
  "review": 65,
  "tvshow": "",
  "address": "경기 고양시 일산동구 무궁화로 8-19 삼라마이다스빌 2차 1층",
  "lat": "37.6610012233935",
  "lng": "126.76680534842713",
  "url": "https://place.map.kakao.com/m/21552772",
  "category": [
   "음식점 ",
   " 카페 ",
   " 테마카페 ",
   " 디저트카페"
  ]
 },
 {
  "name": "태리가옥",
  "type": "이탈리안",
  "star": 4.0,
  "reply": 20,
  "review": 93,
  "tvshow": "",
  "address": "경기 고양시 일산동구 중앙로1275번길 56 1층 103호",
  "lat": "37.6591558324519",
  "lng": "126.769923172419",
  "url": "https://place.map.kakao.com/m/147738935",
  "category": [
   "음식점 ",
   " 양식 ",
   " 이탈리안"
  ]
 },
 {
  "name": "삼보가든 장항본점",
  "type": "육류,고기",
  "star": 3.7,
  "reply": 21,
  "review": 37,
  "tvshow": "",
  "address": "경기 고양시 일산동구 호수로 640 청원레이크빌 1차 107호",
  "lat": "37.65895445920897",
  "lng": "126.76739426696047",
  "url": "https://place.map.kakao.com/m/10445098",
  "category": [
   "음식점 ",
   " 한식 ",
   " 육류,고기"
  ]
 },
 {
  "name": "올댓커피 본점",
  "type": "커피전문점",
  "star": 4.2,
  "reply": 31,
  "review": 75,
  "tvshow": "",
  "address": "경기 고양시 일산동구 중앙로1275번길 60-21 크리스탈빌딩 1층",
  "lat": "37.6597745078413",
  "lng": "126.768849148989",
  "url": "https://place.map.kakao.com/m/17552451",
  "category": [
   "음식점 ",
   " 카페 ",
   " 커피전문점"
  ]
 },
 {
  "name": "고향옥 얼큰순대국 본점",
  "type": "순대",
  "star": 3.5,
  "reply": 36,
  "review": 72,
  "tvshow": "",
  "address": "경기 고양시 일산동구 무궁화로 8-38",
  "lat": "37.65967708708995",
  "lng": "126.76695908737456",
  "url": "https://place.map.kakao.com/m/19305415",
  "category": [
   "음식점 ",
   " 한식 ",
   " 순대"
  ]
 },
 {
  "name": "그린매니저",
  "type": "샌드위치",
  "star": 3.7,
  "reply": 14,
  "review": 88,
  "tvshow": "",
  "address": "경기 고양시 일산동구 중앙로1261번길 79 하이베라스 2층",
  "lat": "37.6569547646259",
  "lng": "126.76993676420666",
  "url": "https://place.map.kakao.com/m/708060777",
  "category": [
   "음식점 ",
   " 패스트푸드 ",
   " 샌드위치"
  ]
 },
 {
  "name": "고기가맛있는집",
  "type": "육류,고기",
  "star": 4.1,
  "reply": 20,
  "review": 72,
  "tvshow": "",
  "address": "경기 고양시 일산동구 중앙로1261번길 55 효산캐슬 2층",
  "lat": "37.6575226672153",
  "lng": "126.771009360221",
  "url": "https://place.map.kakao.com/m/21133148",
  "category": [
   "음식점 ",
   " 한식 ",
   " 육류,고기"
  ]
 },
 {
  "name": "까페라리 일산점",
  "type": "커피전문점",
  "star": 3.8,
  "reply": 40,
  "review": 80,
  "tvshow": "",
  "address": "경기 고양시 일산동구 중앙로1275번길 60-31",
  "lat": "37.660242267657466",
  "lng": "126.76846690311271",
  "url": "https://place.map.kakao.com/m/8113877",
  "category": [
   "음식점 ",
   " 카페 ",
   " 커피전문점 ",
   " 까페라리"
  ]
 },
 {
  "name": "9라파부대찌개 웨돔직영점",
  "type": "찌개,전골",
  "star": 4.7,
  "reply": 11,
  "review": 62,
  "tvshow": "",
  "address": "경기 고양시 일산동구 중앙로1261번길 79 하이베라스 1층 105호",
  "lat": "37.65694398828986",
  "lng": "126.76995492977878",
  "url": "https://place.map.kakao.com/m/1058330267",
  "category": [
   "음식점 ",
   " 한식 ",
   " 찌개,전골"
  ]
 },
 {
  "name": "지느러미",
  "type": "칵테일바",
  "star": 4.3,
  "reply": 20,
  "review": 20,
  "tvshow": "",
  "address": "경기 고양시 일산동구 중앙로1261번길 59 602호",
  "lat": "37.65710351358062",
  "lng": "126.77044401129642",
  "url": "https://place.map.kakao.com/m/10778620",
  "category": [
   "음식점 ",
   " 술집 ",
   " 칵테일바"
  ]
 },
 {
  "name": "타르타르 일산백석점",
  "type": "디저트카페",
  "star": 3.7,
  "reply": 10,
  "review": 99,
  "tvshow": "",
  "address": "경기 고양시 일산동구 장백로 19 더루벤스카운티 1층",
  "lat": "37.6404164601352",
  "lng": "126.78928988764484",
  "url": "https://place.map.kakao.com/m/1792495557",
  "category": [
   "음식점 ",
   " 카페 ",
   " 테마카페 ",
   " 디저트카페"
  ]
 },
 {
  "name": "레이지보이",
  "type": "호프,요리주점",
  "star": 3.5,
  "reply": 11,
  "review": 123,
  "tvshow": "",
  "address": "경기 고양시 일산동구 장백로 13 성우아뜨리움 1층 112호",
  "lat": "37.63997439082139",
  "lng": "126.78997094374867",
  "url": "https://place.map.kakao.com/m/1250293231",
  "category": [
   "음식점 ",
   " 술집 ",
   " 호프,요리주점"
  ]
 },
 {
  "name": "워낭소리정육점식당",
  "type": "육류,고기",
  "star": 3.9,
  "reply": 13,
  "review": 23,
  "tvshow": "",
  "address": "경기 고양시 일산동구 장백로 20",
  "lat": "37.64061044539833",
  "lng": "126.78994875872387",
  "url": "https://place.map.kakao.com/m/12617723",
  "category": [
   "음식점 ",
   " 한식 ",
   " 육류,고기"
  ]
 },
 {
  "name": "스시미",
  "type": "초밥,롤",
  "star": 3.7,
  "reply": 27,
  "review": 25,
  "tvshow": "",
  "address": "경기 고양시 일산동구 장백로 19",
  "lat": "37.640232846629324",
  "lng": "126.78939464374912",
  "url": "https://place.map.kakao.com/m/21223418",
  "category": [
   "음식점 ",
   " 일식 ",
   " 초밥,롤"
  ]
 },
 {
  "name": "카페드나탈리 일산점",
  "type": "카페",
  "star": 4.6,
  "reply": 15,
  "review": 45,
  "tvshow": "",
  "address": "경기 고양시 일산동구 강송로 33 벨라시타 쇼핑몰 1층",
  "lat": "37.64226979749418",
  "lng": "126.79183627590524",
  "url": "https://place.map.kakao.com/m/2114126059",
  "category": [
   "음식점 ",
   " 카페"
  ]
 },
 {
  "name": "민쿡다시마",
  "type": "일식",
  "star": 3.8,
  "reply": 76,
  "review": 48,
  "tvshow": "",
  "address": "경기 고양시 덕양구 화신로260번길 37 진솔프라자 2층",
  "lat": "37.632499476252306",
  "lng": "126.83255728249374",
  "url": "https://place.map.kakao.com/m/11008385",
  "category": [
   "음식점 ",
   " 일식"
  ]
 },
 {
  "name": "민쿡의화덕쭈꾸미",
  "type": "해물,생선",
  "star": 4.6,
  "reply": 24,
  "review": 111,
  "tvshow": "",
  "address": "경기 고양시 덕양구 화신로260번길 51 현창빌딩 2층 204호",
  "lat": "37.63304736972639",
  "lng": "126.83262402763766",
  "url": "https://place.map.kakao.com/m/26854762",
  "category": [
   "음식점 ",
   " 한식 ",
   " 해물,생선"
  ]
 },
 {
  "name": "화정족발집 본점",
  "type": "족발,보쌈",
  "star": 3.8,
  "reply": 69,
  "review": 25,
  "tvshow": "",
  "address": "경기 고양시 덕양구 화신로272번길 29 현대프라자 1층",
  "lat": "37.6322489588685",
  "lng": "126.83126181154",
  "url": "https://place.map.kakao.com/m/14701966",
  "category": [
   "음식점 ",
   " 한식 ",
   " 육류,고기 ",
   " 족발,보쌈"
  ]
 },
 {
  "name": "오빠네옛날떡볶이 화정점",
  "type": "떡볶이",
  "star": 3.8,
  "reply": 28,
  "review": 34,
  "tvshow": "",
  "address": "경기 고양시 덕양구 화신로272번길 52",
  "lat": "37.6331221505161",
  "lng": "126.831989430716",
  "url": "https://place.map.kakao.com/m/27223347",
  "category": [
   "음식점 ",
   " 분식 ",
   " 떡볶이"
  ]
 },
 {
  "name": "크림디저트샵",
  "type": "제과,베이커리",
  "star": 4.2,
  "reply": 13,
  "review": 39,
  "tvshow": "",
  "address": "경기 고양시 덕양구 화신로260번길 57 요진타워 지하1층 13호",
  "lat": "37.63361341765764",
  "lng": "126.83278589804996",
  "url": "https://place.map.kakao.com/m/2027422188",
  "category": [
   "음식점 ",
   " 간식 ",
   " 제과,베이커리"
  ]
 },
 {
  "name": "도발이네 꽃삼식당",
  "type": "삼겹살",
  "star": 4.6,
  "reply": 11,
  "review": 26,
  "tvshow": "",
  "address": "경기 고양시 덕양구 화신로260번길 74",
  "lat": "37.6341877422469",
  "lng": "126.833704546589",
  "url": "https://place.map.kakao.com/m/1380166810",
  "category": [
   "음식점 ",
   " 한식 ",
   " 육류,고기 ",
   " 삼겹살"
  ]
 },
 {
  "name": "쿠우쿠우 화정점",
  "type": "일식",
  "star": 3.6,
  "reply": 36,
  "review": 67,
  "tvshow": "",
  "address": "경기 고양시 덕양구 화정로 53 새롬프라자 8층",
  "lat": "37.635136600398205",
  "lng": "126.83188293057731",
  "url": "https://place.map.kakao.com/m/26308768",
  "category": [
   "음식점 ",
   " 일식"
  ]
 },
 {
  "name": "백세삼계탕 고양점",
  "type": "삼계탕",
  "star": 4.8,
  "reply": 46,
  "review": 121,
  "tvshow": "",
  "address": "경기 고양시 덕양구 호국로 616 1층",
  "lat": "37.64233423476991",
  "lng": "126.82977057058729",
  "url": "https://place.map.kakao.com/m/1009646798",
  "category": [
   "음식점 ",
   " 한식 ",
   " 육류,고기 ",
   " 닭요리 ",
   " 삼계탕"
  ]
 },
 {
  "name": "중화요리하선생",
  "type": "중화요리",
  "star": 4.4,
  "reply": 24,
  "review": 24,
  "tvshow": "",
  "address": "경기 고양시 덕양구 화중로 96 우정프라자 202호",
  "lat": "37.63572751832092",
  "lng": "126.83179322921843",
  "url": "https://place.map.kakao.com/m/27263386",
  "category": [
   "음식점 ",
   " 중식 ",
   " 중화요리"
  ]
 },
 {
  "name": "화정태국맛집쿠아촉디",
  "type": "태국음식",
  "star": 4.8,
  "reply": 16,
  "review": 37,
  "tvshow": "",
  "address": "경기 고양시 덕양구 은빛로 53 코스미온빌 113호",
  "lat": "37.638096987518985",
  "lng": "126.83361539207297",
  "url": "https://place.map.kakao.com/m/1985374910",
  "category": [
   "음식점 ",
   " 아시아음식 ",
   " 동남아음식 ",
   " 태국음식"
  ]
 },
 {
  "name": "제주도야지 화정집",
  "type": "육류,고기",
  "star": 4.1,
  "reply": 40,
  "review": 40,
  "tvshow": "",
  "address": "경기 고양시 덕양구 화중로104번길 16",
  "lat": "37.63614581263831",
  "lng": "126.83195996364051",
  "url": "https://place.map.kakao.com/m/18565921",
  "category": [
   "음식점 ",
   " 한식 ",
   " 육류,고기"
  ]
 },
 {
  "name": "이장네오리",
  "type": "오리",
  "star": 4.6,
  "reply": 10,
  "review": 45,
  "tvshow": "",
  "address": "경기 고양시 덕양구 대장길50번길 71 1층",
  "lat": "37.63784426933056",
  "lng": "126.81805672923187",
  "url": "https://place.map.kakao.com/m/26894260",
  "category": [
   "음식점 ",
   " 한식 ",
   " 육류,고기 ",
   " 오리"
  ]
 },
 {
  "name": "큐커피",
  "type": "디저트카페",
  "star": 4.0,
  "reply": 11,
  "review": 110,
  "tvshow": "",
  "address": "경기 고양시 덕양구 고양대로1315번길 72 나동 1층",
  "lat": "37.659272579557474",
  "lng": "126.83031442243721",
  "url": "https://place.map.kakao.com/m/592845869",
  "category": [
   "음식점 ",
   " 카페 ",
   " 테마카페 ",
   " 디저트카페"
  ]
 },
 {
  "name": "사담손만두 화정점",
  "type": "분식",
  "star": 3.8,
  "reply": 20,
  "review": 100,
  "tvshow": "",
  "address": "경기 고양시 덕양구 호국로 634",
  "lat": "37.64404995277942",
  "lng": "126.82994114891888",
  "url": "https://place.map.kakao.com/m/1510104670",
  "category": [
   "음식점 ",
   " 분식"
  ]
 },
 {
  "name": "팔덕식당 일산점",
  "type": "갈비",
  "star": 4.6,
  "reply": 29,
  "review": 219,
  "tvshow": "",
  "address": "경기 고양시 일산동구 백석로108번길 10",
  "lat": "37.64859030977824",
  "lng": "126.78936651390656",
  "url": "https://place.map.kakao.com/m/1404443782",
  "category": [
   "음식점 ",
   " 한식 ",
   " 육류,고기 ",
   " 갈비"
  ]
 },
 {
  "name": "곰타코",
  "type": "멕시칸,브라질",
  "star": 4.1,
  "reply": 21,
  "review": 29,
  "tvshow": "tv소개",
  "address": "경기 고양시 일산동구 백석로108번길 6-8 1층",
  "lat": "37.6487120325469",
  "lng": "126.788912912013",
  "url": "https://place.map.kakao.com/m/1540667739",
  "category": [
   "음식점 ",
   " 양식 ",
   " 멕시칸,브라질"
  ]
 },
 {
  "name": "싹쓰리 솥뚜껑김치삼겹살 본관",
  "type": "삼겹살",
  "star": 3.5,
  "reply": 22,
  "review": 28,
  "tvshow": "tv소개",
  "address": "경기 고양시 일산동구 강송로73번길 7-17",
  "lat": "37.6459473550771",
  "lng": "126.790674780133",
  "url": "https://place.map.kakao.com/m/19934189",
  "category": [
   "음식점 ",
   " 한식 ",
   " 육류,고기 ",
   " 삼겹살"
  ]
 },
 {
  "name": "대가쭈꾸미 백석점",
  "type": "해물,생선",
  "star": 3.7,
  "reply": 22,
  "review": 34,
  "tvshow": "",
  "address": "경기 고양시 일산동구 일산로 71",
  "lat": "37.6445863734504",
  "lng": "126.789382352802",
  "url": "https://place.map.kakao.com/m/21232845",
  "category": [
   "음식점 ",
   " 한식 ",
   " 해물,생선"
  ]
 },
 {
  "name": "논산댁",
  "type": "닭요리",
  "star": 3.8,
  "reply": 13,
  "review": 105,
  "tvshow": "",
  "address": "경기 고양시 일산동구 백석로72번길 68",
  "lat": "37.6446538836669",
  "lng": "126.788842814356",
  "url": "https://place.map.kakao.com/m/17810028",
  "category": [
   "음식점 ",
   " 한식 ",
   " 육류,고기 ",
   " 닭요리"
  ]
 },
 {
  "name": "신선설농탕 일산백석점",
  "type": "설렁탕",
  "star": 3.5,
  "reply": 45,
  "review": 26,
  "tvshow": "",
  "address": "경기 고양시 일산동구 일산로 59",
  "lat": "37.6437629867082",
  "lng": "126.788437430969",
  "url": "https://place.map.kakao.com/m/7969004",
  "category": [
   "음식점 ",
   " 한식 ",
   " 설렁탕 ",
   " 신선설농탕"
  ]
 },
 {
  "name": "임가주방플러스",
  "type": "양식",
  "star": 3.6,
  "reply": 14,
  "review": 35,
  "tvshow": "",
  "address": "경기 고양시 일산동구 강송로73번길 53-17",
  "lat": "37.6444484120366",
  "lng": "126.788816202061",
  "url": "https://place.map.kakao.com/m/20305739",
  "category": [
   "음식점 ",
   " 양식"
  ]
 },
 {
  "name": "대관령가는길",
  "type": "한식",
  "star": 4.0,
  "reply": 23,
  "review": 22,
  "tvshow": "",
  "address": "경기 고양시 일산동구 은행마을로21번길 135",
  "lat": "37.65968757163393",
  "lng": "126.80070455335276",
  "url": "https://place.map.kakao.com/m/7815735",
  "category": [
   "음식점 ",
   " 한식"
  ]
 },
 {
  "name": "풍동562카페",
  "type": "카페",
  "star": 4.0,
  "reply": 13,
  "review": 169,
  "tvshow": "",
  "address": "경기 고양시 일산동구 애니골길 18-13",
  "lat": "37.669387909726154",
  "lng": "126.79103967453604",
  "url": "https://place.map.kakao.com/m/521668973",
  "category": [
   "음식점 ",
   " 카페"
  ]
 },
 {
  "name": "꽁당보리밥&두부찜",
  "type": "한식",
  "star": 4.5,
  "reply": 15,
  "review": 30,
  "tvshow": "",
  "address": "경기 고양시 일산동구 애니골길 15 2층",
  "lat": "37.669675032209",
  "lng": "126.789862333845",
  "url": "https://place.map.kakao.com/m/91973331",
  "category": [
   "음식점 ",
   " 한식"
  ]
 },
 {
  "name": "양수가든 풍동점",
  "type": "갈비",
  "star": 4.4,
  "reply": 18,
  "review": 106,
  "tvshow": "",
  "address": "경기 고양시 일산동구 숲속마을로 50-42",
  "lat": "37.66797382599753",
  "lng": "126.79907858280446",
  "url": "https://place.map.kakao.com/m/11796320",
  "category": [
   "음식점 ",
   " 한식 ",
   " 육류,고기 ",
   " 갈비"
  ]
 },
 {
  "name": "산에산화덕구이 애니골직영점",
  "type": "육류,고기",
  "star": 4.3,
  "reply": 27,
  "review": 27,
  "tvshow": "tv소개",
  "address": "경기 고양시 일산동구 숲속마을로 85-26 2층",
  "lat": "37.66717656658629",
  "lng": "126.79033974999128",
  "url": "https://place.map.kakao.com/m/19272233",
  "category": [
   "음식점 ",
   " 한식 ",
   " 육류,고기"
  ]
 },
 {
  "name": "청정활어",
  "type": "회",
  "star": 4.0,
  "reply": 21,
  "review": 41,
  "tvshow": "",
  "address": "경기 고양시 일산동구 숲속마을1로 26 다인타운 101호",
  "lat": "37.6634954930138",
  "lng": "126.799334328812",
  "url": "https://place.map.kakao.com/m/15713221",
  "category": [
   "음식점 ",
   " 한식 ",
   " 해물,생선 ",
   " 회"
  ]
 },
 {
  "name": "9라파부대찌개 본점",
  "type": "찌개,전골",
  "star": 4.0,
  "reply": 18,
  "review": 69,
  "tvshow": "",
  "address": "경기 고양시 일산동구 숲속마을로 50-42 대호프라자 1층",
  "lat": "37.66789557630697",
  "lng": "126.7991581343482",
  "url": "https://place.map.kakao.com/m/472711829",
  "category": [
   "음식점 ",
   " 한식 ",
   " 찌개,전골"
  ]
 },
 {
  "name": "소코아 일산점",
  "type": "일식",
  "star": 4.5,
  "reply": 11,
  "review": 174,
  "tvshow": "",
  "address": "경기 고양시 일산동구 산두로 53 1층",
  "lat": "37.6630519120063",
  "lng": "126.788840578143",
  "url": "https://place.map.kakao.com/m/1810566167",
  "category": [
   "음식점 ",
   " 일식"
  ]
 },
 {
  "name": "왕십리조개창고 일산점",
  "type": "조개",
  "star": 4.2,
  "reply": 11,
  "review": 302,
  "tvshow": "tv소개",
  "address": "경기 고양시 일산동구 고일로 8 2층",
  "lat": "37.673035272314365",
  "lng": "126.80483112885543",
  "url": "https://place.map.kakao.com/m/1356975345",
  "category": [
   "음식점 ",
   " 한식 ",
   " 해물,생선 ",
   " 조개"
  ]
 },
 {
  "name": "옛골할머니 감자탕순대국 일산본점",
  "type": "",
  "star": 4.0,
  "reply": 11,
  "review": 36,
  "tvshow": "tv소개",
  "address": "경기 고양시 일산동구 고일로 10",
  "lat": "37.67283615321611",
  "lng": "126.80482938334303",
  "url": "https://place.map.kakao.com/m/798017554",
  "category": [
   "음식점 ",
   " 한식 ",
   " 감자탕"
  ]
 },
 {
  "name": "준우식당새우직판장",
  "type": "해물,생선",
  "star": 4.1,
  "reply": 23,
  "review": 22,
  "tvshow": "",
  "address": "경기 고양시 일산동구 위시티로 3-8",
  "lat": "37.6750968369208",
  "lng": "126.806000083549",
  "url": "https://place.map.kakao.com/m/9102802",
  "category": [
   "음식점 ",
   " 한식 ",
   " 해물,생선"
  ]
 },
 {
  "name": "본정손만두",
  "type": "분식",
  "star": 3.5,
  "reply": 22,
  "review": 39,
  "tvshow": "tv소개",
  "address": "경기 고양시 일산동구 위시티로 51",
  "lat": "37.67693141284591",
  "lng": "126.80998775691448",
  "url": "https://place.map.kakao.com/m/18437590",
  "category": [
   "음식점 ",
   " 분식"
  ]
 },
 {
  "name": "다람쥐마을 누룽지백숙",
  "type": "삼계탕",
  "star": 3.8,
  "reply": 52,
  "review": 401,
  "tvshow": "tv소개",
  "address": "경기 고양시 일산동구 애니골길43번길 48",
  "lat": "37.6732444060576",
  "lng": "126.789188026867",
  "url": "https://place.map.kakao.com/m/26624324",
  "category": [
   "음식점 ",
   " 한식 ",
   " 육류,고기 ",
   " 닭요리 ",
   " 삼계탕"
  ]
 },
 {
  "name": "빠르끄베이커리카페",
  "type": "디저트카페",
  "star": 3.8,
  "reply": 27,
  "review": 354,
  "tvshow": "",
  "address": "경기 고양시 일산동구 고양대로 916 3층",
  "lat": "37.677521424019766",
  "lng": "126.79693417057472",
  "url": "https://place.map.kakao.com/m/60959379",
  "category": [
   "음식점 ",
   " 카페 ",
   " 테마카페 ",
   " 디저트카페"
  ]
 },
 {
  "name": "미덕원",
  "type": "오리",
  "star": 3.9,
  "reply": 40,
  "review": 86,
  "tvshow": "",
  "address": "경기 고양시 일산동구 애니골길43번길 17-1",
  "lat": "37.6713588471273",
  "lng": "126.790811984146",
  "url": "https://place.map.kakao.com/m/1511490010",
  "category": [
   "음식점 ",
   " 한식 ",
   " 육류,고기 ",
   " 오리"
  ]
 },
 {
  "name": "양수면옥",
  "type": "갈비",
  "star": 3.7,
  "reply": 107,
  "review": 159,
  "tvshow": "",
  "address": "경기 고양시 일산동구 애니골길 34",
  "lat": "37.6706864032356",
  "lng": "126.791652646478",
  "url": "https://place.map.kakao.com/m/11099136",
  "category": [
   "음식점 ",
   " 한식 ",
   " 육류,고기 ",
   " 갈비"
  ]
 },
 {
  "name": "잎새",
  "type": "쌈밥",
  "star": 4.0,
  "reply": 72,
  "review": 45,
  "tvshow": "",
  "address": "경기 고양시 일산동구 애니골길 112",
  "lat": "37.6760715157241",
  "lng": "126.794199437841",
  "url": "https://place.map.kakao.com/m/11168883",
  "category": [
   "음식점 ",
   " 한식 ",
   " 쌈밥"
  ]
 },
 {
  "name": "뒤뜰",
  "type": "카페",
  "star": 4.1,
  "reply": 13,
  "review": 100,
  "tvshow": "",
  "address": "경기 고양시 일산동구 애니골길 62-7 1층",
  "lat": "37.6734883160115",
  "lng": "126.792601505161",
  "url": "https://place.map.kakao.com/m/1685363719",
  "category": [
   "음식점 ",
   " 카페"
  ]
 },
 {
  "name": "콤마나인",
  "type": "카페",
  "star": 4.3,
  "reply": 10,
  "review": 94,
  "tvshow": "",
  "address": "경기 고양시 일산동구 숲속마을2로 59 1층",
  "lat": "37.674350151036215",
  "lng": "126.79913733755974",
  "url": "https://place.map.kakao.com/m/475273264",
  "category": [
   "음식점 ",
   " 카페"
  ]
 },
 {
  "name": "참한간장게장 일산본점",
  "type": "게,대게",
  "star": 3.5,
  "reply": 27,
  "review": 56,
  "tvshow": "",
  "address": "경기 고양시 일산동구 애니골길43번길 43",
  "lat": "37.6727284327968",
  "lng": "126.788844899397",
  "url": "https://place.map.kakao.com/m/22733023",
  "category": [
   "음식점 ",
   " 한식 ",
   " 해물,생선 ",
   " 게,대게"
  ]
 },
 {
  "name": "한소반쭈꾸미 일산점",
  "type": "해물,생선",
  "star": 3.8,
  "reply": 31,
  "review": 73,
  "tvshow": "",
  "address": "경기 고양시 일산동구 애니골길 55",
  "lat": "37.6727085008523",
  "lng": "126.791823820552",
  "url": "https://place.map.kakao.com/m/21626402",
  "category": [
   "음식점 ",
   " 한식 ",
   " 해물,생선"
  ]
 },
 {
  "name": "갤러리카페밀",
  "type": "갤러리카페",
  "star": 4.1,
  "reply": 14,
  "review": 128,
  "tvshow": "",
  "address": "경기 고양시 일산동구 애니골길 74 3층",
  "lat": "37.67401089560935",
  "lng": "126.7920967633396",
  "url": "https://place.map.kakao.com/m/20688405",
  "category": [
   "음식점 ",
   " 카페 ",
   " 테마카페 ",
   " 갤러리카페"
  ]
 },
 {
  "name": "장수마을",
  "type": "닭요리",
  "star": 3.6,
  "reply": 34,
  "review": 134,
  "tvshow": "tv소개",
  "address": "경기 고양시 일산동구 애니골길43번길 14",
  "lat": "37.67265669139952",
  "lng": "126.79105771294556",
  "url": "https://place.map.kakao.com/m/8073736",
  "category": [
   "음식점 ",
   " 한식 ",
   " 육류,고기 ",
   " 닭요리"
  ]
 },
 {
  "name": "황도바지락칼국수",
  "type": "국수",
  "star": 4.4,
  "reply": 18,
  "review": 21,
  "tvshow": "",
  "address": "경기 고양시 일산동구 애니골길43번길 17-1",
  "lat": "37.6704793437424",
  "lng": "126.790728308729",
  "url": "https://place.map.kakao.com/m/11509994",
  "category": [
   "음식점 ",
   " 한식 ",
   " 국수"
  ]
 },
 {
  "name": "포램 풍동점",
  "type": "육류,고기",
  "star": 4.2,
  "reply": 10,
  "review": 34,
  "tvshow": "",
  "address": "경기 고양시 일산동구 애니골길 118",
  "lat": "37.67677093200813",
  "lng": "126.79434713746402",
  "url": "https://place.map.kakao.com/m/20394332",
  "category": [
   "음식점 ",
   " 한식 ",
   " 육류,고기"
  ]
 },
 {
  "name": "친구",
  "type": "육류,고기",
  "star": 3.6,
  "reply": 13,
  "review": 28,
  "tvshow": "",
  "address": "경기 고양시 일산동구 애니골길 47",
  "lat": "37.67204763314843",
  "lng": "126.79105942066349",
  "url": "https://place.map.kakao.com/m/9462030",
  "category": [
   "음식점 ",
   " 한식 ",
   " 육류,고기"
  ]
 },
 {
  "name": "목우촌웰빙마을 애니골점",
  "type": "육류,고기",
  "star": 4.1,
  "reply": 23,
  "review": 61,
  "tvshow": "",
  "address": "경기 고양시 일산동구 애니골길43번길 17-1",
  "lat": "37.670871298585894",
  "lng": "126.79023754375245",
  "url": "https://place.map.kakao.com/m/17723063",
  "category": [
   "음식점 ",
   " 한식 ",
   " 육류,고기 ",
   " 목우촌웰빙마을"
  ]
 },
 {
  "name": "권가제면소 일산애니골점",
  "type": "돈까스,우동",
  "star": 4.3,
  "reply": 17,
  "review": 54,
  "tvshow": "",
  "address": "경기 고양시 일산동구 애니골길 74 2층",
  "lat": "37.6739820484707",
  "lng": "126.79208777559",
  "url": "https://place.map.kakao.com/m/2085471126",
  "category": [
   "음식점 ",
   " 일식 ",
   " 돈까스,우동"
  ]
 },