[{"name": "\ub8e8\uc18c\ub7a9 \uc815\ub3d9\uc810", "type": "\uce74\ud398", "star": 4.3, "reply": 82, "review": 123, "tvshow": "", "address": "\uc11c\uc6b8 \uc911\uad6c \uc815\ub3d9\uae38 17 \uc774\ud654\uc815\ub3d9\ube4c\ub529", "lat": "37.56697654146137", "lng": "126.97059642635685", "url": "https://place.map.kakao.com/m/253560122", "category": ["\uc74c\uc2dd\uc810 ", " \uce74\ud398"]}, {"name": "\uc548\ucd98\uc120\uac08\ube44\ubc30\ucd94\ud0d5", "type": "\ud55c\uc2dd", "star": 3.5, "reply": 17, "review": 35, "tvshow": "", "address": "\uc11c\uc6b8 \uc11c\ub300\ubb38\uad6c \ud1b5\uc77c\ub85c 135", "lat": "37.5664120257494", "lng": "126.9654521654452", "url": "https://place.map.kakao.com/m/12394388", "category": ["\uc74c\uc2dd\uc810 ", " \ud55c\uc2dd"]}, {"name": "\ub3c5\ub9bd\ub9e5\uc8fc\uacf5\uc7a5", "type": "\ud638\ud504,\uc694\ub9ac\uc8fc\uc810", "star": 3.8, "reply": 11, "review": 62, "tvshow": "tv\uc18c\uac1c", "address": "\uc11c\uc6b8 \uc911\uad6c \uc815\ub3d9\uae38 17 \uc774\ud654\uc815\ub3d9\ube4c\ub529 1\uce35", "lat": "37.5670765228959", "lng": "126.970479800381", "url": "https://place.map.kakao.com/m/1005801516", "category": ["\uc74c\uc2dd\uc810 ", " \uc220\uc9d1 ", " \ud638\ud504,\uc694\ub9ac\uc8fc\uc810"]}, {"name": "\uace0\ud5a5\ucd0c", "type": "\uc721\ub958,\uace0\uae30", "star": 4.2, "reply": 45, "review": 31, "tvshow": "", "address": "\uc11c\uc6b8 \uc11c\ub300\ubb38\uad6c \ud1b5\uc77c\ub85c9\uc548\uae38 28-5", "lat": "37.5660407176187", "lng": "126.965119560155", "url": "https://place.map.kakao.com/m/11300355", "category": ["\uc74c\uc2dd\uc810 ", " \ud55c\uc2dd ", " \uc721\ub958,\uace0\uae30"]}, {"name": "\ud3c9\ucc3d\uc6b0\uc120\uc0dd", "type": "\uc721\ub958,\uace0\uae30", "star": 3.5, "reply": 20, "review": 49, "tvshow": "", "address": "\uc11c\uc6b8 \uc911\uad6c \ud1b5\uc77c\ub85c 102 \ubc14\ube44\uc5e5\uc2a4\uc704\ud2b81 1\uce35", "lat": "37.5643297747521", "lng": "126.968497851697", "url": "https://place.map.kakao.com/m/11746571", "category": ["\uc74c\uc2dd\uc810 ", " \ud55c\uc2dd ", " \uc721\ub958,\uace0\uae30"]}, {"name": "\uc885\ub85c\ubcf4\uc308", "type": "\uc871\ubc1c,\ubcf4\uc308", "star": 3.6, "reply": 14, "review": 31, "tvshow": "", "address": "\uc11c\uc6b8 \uc11c\ub300\ubb38\uad6c \ucda9\uc815\ub85c 73", "lat": "37.5652913321987", "lng": "126.965952975045", "url": "https://place.map.kakao.com/m/10788220", "category": ["\uc74c\uc2dd\uc810 ", " \ud55c\uc2dd ", " \uc721\ub958,\uace0\uae30 ", " \uc871\ubc1c,\ubcf4\uc308"]}, {"name": "\uc544\ubc14\uc774\uc655\uc21c\ub300", "type": "\uc21c\ub300", "star": 3.8, "reply": 12, "review": 25, "tvshow": "", "address": "\uc11c\uc6b8 \uc11c\ub300\ubb38\uad6c \ucda9\uc815\ub85c6\uc548\uae38 52", "lat": "37.5642644174138", "lng": "126.966727639368", "url": "https://place.map.kakao.com/m/2126219174", "category": ["\uc74c\uc2dd\uc810 ", " \ud55c\uc2dd ", " \uc21c\ub300"]}, {"name": "\ud3c9\uc591\uc625", "type": "\ub2ed\uc694\ub9ac", "star": 4.7, "reply": 10, "review": 22, "tvshow": "tv\uc18c\uac1c", "address": "\uc11c\uc6b8 \uc11c\ub300\ubb38\uad6c \ud1b5\uc77c\ub85c 107-23", "lat": "37.56427529548088", "lng": "126.96696306288129", "url": "https://place.map.kakao.com/m/9530706", "category": ["\uc74c\uc2dd\uc810 ", " \ud55c\uc2dd ", " \uc721\ub958,\uace0\uae30 ", " \ub2ed\uc694\ub9ac"]}, {"name": "\ucee4\ud53c\uc564\uc2dc\uac00\ub81b", "type": "\uce74\ud398", "star": 3.5, "reply": 62, "review": 484, "tvshow": "", "address": "\uc11c\uc6b8 \uc911\uad6c \uc11c\uc18c\ubb38\ub85c 116 \uc720\uc6d0\ube4c\ub529 17\uce35", "lat": "37.5626696960715", "lng": "126.974085326743", "url": "https://place.map.kakao.com/m/1198183678", "category": ["\uc74c\uc2dd\uc810 ", " \uce74\ud398"]}, {"name": "\ub355\uc218\uc815", "type": "\ud55c\uc2dd", "star": 3.8, "reply": 50, "review": 71, "tvshow": "", "address": "\uc11c\uc6b8 \uc911\uad6c \uc815\ub3d9\uae38 41", "lat": "37.565884101522", "lng": "126.972540313337", "url": "https://place.map.kakao.com/m/10325577", "category": ["\uc74c\uc2dd\uc810 ", " \ud55c\uc2dd"]}, {"name": "\ub77c\uc6b4\ub4dc\uc564\ub4dc", "type": "\uc81c\uacfc,\ubca0\uc774\ucee4\ub9ac", "star": 4.0, "reply": 33, "review": 224, "tvshow": "", "address": "\uc11c\uc6b8 \uc911\uad6c \uc815\ub3d9\uae38 35 1\uce35", "lat": "37.5660606555229", "lng": "126.972363673049", "url": "https://place.map.kakao.com/m/1651034737", "category": ["\uc74c\uc2dd\uc810 ", " \uac04\uc2dd ", " \uc81c\uacfc,\ubca0\uc774\ucee4\ub9ac"]}, {"name": "\ub9cc\uc871\uc624\ud5a5\uc871\ubc1c \uc2dc\uccad\ubcf8\uc810", "type": "\uc871\ubc1c,\ubcf4\uc308", "star": 3.8, "reply": 206, "review": 314, "tvshow": "", "address": "\uc11c\uc6b8 \uc911\uad6c \uc11c\uc18c\ubb38\ub85c 134-7", "lat": "37.5632575533142", "lng": "126.976013798412", "url": "https://place.map.kakao.com/m/21324404", "category": ["\uc74c\uc2dd\uc810 ", " \ud55c\uc2dd ", " \uc721\ub958,\uace0\uae30 ", " \uc871\ubc1c,\ubcf4\uc308 ", " \ub9cc\uc871\uc624\ud5a5\uc871\ubc1c"]}, {"name": "\uace0\ub824\uc0bc\uacc4\ud0d5 \uc2dc\uccad\ubcf8\uc810", "type": "\uc0bc\uacc4\ud0d5", "star": 3.6, "reply": 112, "review": 24, "tvshow": "", "address": "\uc11c\uc6b8 \uc911\uad6c \uc11c\uc18c\ubb38\ub85c11\uae38 1", "lat": "37.5630118104688", "lng": "126.972908086346", "url": "https://place.map.kakao.com/m/8178288", "category": ["\uc74c\uc2dd\uc810 ", " \ud55c\uc2dd ", " \uc721\ub958,\uace0\uae30 ", " \ub2ed\uc694\ub9ac ", " \uc0bc\uacc4\ud0d5"]}, {"name": "\ub0a8\ub3c4\uc2dd\ub2f9", "type": "\ucd94\uc5b4", "star": 4.1, "reply": 58, "review": 25, "tvshow": "tv\uc18c\uac1c", "address": "\uc11c\uc6b8 \uc911\uad6c \uc815\ub3d9\uae38 41-3", "lat": "37.5659381749535", "lng": "126.972599151885", "url": "https://place.map.kakao.com/m/8247612", "category": ["\uc74c\uc2dd\uc810 ", " \ud55c\uc2dd ", " \ud574\ubb3c,\uc0dd\uc120 ", " \ucd94\uc5b4"]}, {"name": "\uad11\ud654\ubb38\uad6d\ubc25 \ubcf8\uc810", "type": "\uad6d\ubc25", "star": 3.8, "reply": 146, "review": 243, "tvshow": "", "address": "\uc11c\uc6b8 \uc911\uad6c \uc138\uc885\ub300\ub85c21\uae38 53 1\uce35", "lat": "37.5689589279236", "lng": "126.975391668232", "url": "https://place.map.kakao.com/m/2067124772", "category": ["\uc74c\uc2dd\uc810 ", " \ud55c\uc2dd ", " \uad6d\ubc25"]}, {"name": "\ud3ec\ube44\ube0c\ub77c\uc774\ud2b8 \uad11\ud654\ubb38\uc810", "type": "\uce74\ud398", "star": 3.8, "reply": 17, "review": 209, "tvshow": "", "address": "\uc11c\uc6b8 \uc885\ub85c\uad6c \uc0c8\ubb38\uc548\ub85c 76", "lat": "37.5697981733817", "lng": "126.973177296622", "url": "https://place.map.kakao.com/m/281666038", "category": ["\uc74c\uc2dd\uc810 ", " \uce74\ud398"]}, {"name": "\uc554\uc18c\uc11c\uc6b8", "type": "\ud55c\uc815\uc2dd", "star": 3.8, "reply": 22, "review": 362, "tvshow": "tv\uc18c\uac1c", "address": "\uc11c\uc6b8 \uc885\ub85c\uad6c \uc0c8\ubb38\uc548\ub85c 76 \ucf58\ucf54\ub514\uc5b8\ube4c\ub529 \uc9c0\ud5581\uce35", "lat": "37.5697242830121", "lng": "126.97313883683483", "url": "https://place.map.kakao.com/m/2034797687", "category": ["\uc74c\uc2dd\uc810 ", " \ud55c\uc2dd ", " \ud55c\uc815\uc2dd"]}, {"name": "\uc77c\ud488\ub2f9 \uad11\ud654\ubb38\uc810", "type": "\uc0e4\ube0c\uc0e4\ube0c", "star": 3.5, "reply": 68, "review": 45, "tvshow": "", "address": "\uc11c\uc6b8 \uc885\ub85c\uad6c \uc138\uc885\ub300\ub85c23\uae38 25", "lat": "37.5715284961927", "lng": "126.975055757659", "url": "https://place.map.kakao.com/m/8051186", "category": ["\uc74c\uc2dd\uc810 ", " \uc0e4\ube0c\uc0e4\ube0c"]}, {"name": "\ud654\ubaa9\uc21c\ub300\uad6d \uad11\ud654\ubb381\ud638\uc810", "type": "\uc21c\ub300", "star": 3.8, "reply": 100, "review": 55, "tvshow": "", "address": "\uc11c\uc6b8 \uc885\ub85c\uad6c \uc0c8\ubb38\uc548\ub85c5\uae38 11", "lat": "37.57119685726065", "lng": "126.97471401277097", "url": "https://place.map.kakao.com/m/15431872", "category": ["\uc74c\uc2dd\uc810 ", " \ud55c\uc2dd ", " \uc21c\ub300"]}, {"name": "\ud0dd\uc774\ub124\uc870\uac1c\uc804\uace8 \uad11\ud654\ubb38\uc810", "type": "\uc870\uac1c", "star": 4.3, "reply": 29, "review": 87, "tvshow": "", "address": "\uc11c\uc6b8 \uc885\ub85c\uad6c \uc0c8\ubb38\uc548\ub85c9\uae38 29", "lat": "37.571481712408485", "lng": "126.97537951843955", "url": "https://place.map.kakao.com/m/380922242", "category": ["\uc74c\uc2dd\uc810 ", " \ud55c\uc2dd ", " \ud574\ubb3c,\uc0dd\uc120 ", " \uc870\uac1c"]}, {"name": "\ud0c0\ucf54\ubca8 \uad11\ud654\ubb38\uc810", "type": "\uba55\uc2dc\uce78,\ube0c\ub77c\uc9c8", "star": 3.5, "reply": 28, "review": 36, "tvshow": "", "address": "\uc11c\uc6b8 \uc885\ub85c\uad6c \uc0c8\ubb38\uc548\ub85c 103 \uc120\uad11\ube4c\ub529 1\uce35", "lat": "37.5705087814269", "lng": "126.976079390865", "url": "https://place.map.kakao.com/m/525029118", "category": ["\uc74c\uc2dd\uc810 ", " \uc591\uc2dd ", " \uba55\uc2dc\uce78,\ube0c\ub77c\uc9c8"]}, {"name": "\uc57c\ub9c8\uc57c \uc2e0\ubb38\ub85c\uc810", "type": "\uc77c\uc2dd\uc9d1", "star": 3.5, "reply": 59, "review": 29, "tvshow": "", "address": "\uc11c\uc6b8 \uc885\ub85c\uad6c \uc0c8\ubb38\uc548\ub85c3\uae38 12", "lat": "37.5712144623394", "lng": "126.972846252859", "url": "https://place.map.kakao.com/m/14598965", "category": ["\uc74c\uc2dd\uc810 ", " \uc77c\uc2dd ", " \uc77c\uc2dd\uc9d1"]}, {"name": "\ud3ec\uc2dc\uc98c\uc2a4\ud638\ud154 \uc720\uc720\uc548", "type": "\uc911\uc2dd", "star": 4.2, "reply": 25, "review": 107, "tvshow": "tv\uc18c\uac1c", "address": "\uc11c\uc6b8 \uc885\ub85c\uad6c \uc0c8\ubb38\uc548\ub85c 97 11\uce35", "lat": "37.5705879294402", "lng": "126.975400187981", "url": "https://place.map.kakao.com/m/27464311", "category": ["\uc74c\uc2dd\uc810 ", " \uc911\uc2dd"]}, {"name": "\ube4c\ub9ac\uc5d4\uc824 \uad11\ud654\ubb38\uc810", "type": "\ub514\uc800\ud2b8\uce74\ud398", "star": 3.9, "reply": 11, "review": 31, "tvshow": "", "address": "\uc11c\uc6b8 \uc885\ub85c\uad6c \uc0c8\ubb38\uc548\ub85c 92 1\uce35", "lat": "37.5697264730916", "lng": "126.974902413491", "url": "https://place.map.kakao.com/m/1294601835", "category": ["\uc74c\uc2dd\uc810 ", " \uce74\ud398 ", " \ud14c\ub9c8\uce74\ud398 ", " \ub514\uc800\ud2b8\uce74\ud398"]}, {"name": "\ud145\ub304\uc2a4", "type": "\uc591\uc2dd", "star": 3.7, "reply": 13, "review": 50, "tvshow": "", "address": "\uc11c\uc6b8 \uc885\ub85c\uad6c \uc0c8\ubb38\uc548\ub85c3\uae38 11 1\uce35", "lat": "37.5713765433254", "lng": "126.972422835534", "url": "https://place.map.kakao.com/m/704442445", "category": ["\uc74c\uc2dd\uc810 ", " \uc591\uc2dd"]}, {"name": "\ub098\uc8fc\uc18c \ub098\uc8fc\uacf0\ud0d5 \uad11\ud654\ubb38\uc810", "type": "\uacf0\ud0d5", "star": 3.5, "reply": 16, "review": 87, "tvshow": "", "address": "\uc11c\uc6b8 \uc885\ub85c\uad6c \uc0c8\ubb38\uc548\ub85c 87-1", "lat": "37.57047238045369", "lng": "126.97435882198545", "url": "https://place.map.kakao.com/m/26935902", "category": ["\uc74c\uc2dd\uc810 ", " \ud55c\uc2dd ", " \uacf0\ud0d5"]}, {"name": "\ub274\uc624\ub9ac\uc9c4 \uad11\ud654\ubb38\uc810", "type": "\uce74\ud398", "star": 4.4, "reply": 13, "review": 55, "tvshow": "", "address": "\uc11c\uc6b8 \uc885\ub85c\uad6c \uc0c8\ubb38\uc548\ub85c 96", "lat": "37.56992300480823", "lng": "126.97544794867748", "url": "https://place.map.kakao.com/m/1137720981", "category": ["\uc74c\uc2dd\uc810 ", " \uce74\ud398"]}, {"name": "\uc634 \uad11\ud654\ubb38\uc810", "type": "\uc778\ub3c4\uc74c\uc2dd", "star": 4.5, "reply": 16, "review": 24, "tvshow": "", "address": "\uc11c\uc6b8 \uc885\ub85c\uad6c \uc0c8\ubb38\uc548\ub85c 103 \uc120\uad11\ube4c\ub529 \uc9c0\ud558 1\uce35", "lat": "37.5705087805093", "lng": "126.97607486302", "url": "https://place.map.kakao.com/m/21407823", "category": ["\uc74c\uc2dd\uc810 ", " \uc544\uc2dc\uc544\uc74c\uc2dd ", " \uc778\ub3c4\uc74c\uc2dd"]}, {"name": "\ud22c\uc378\ud50c\ub808\uc774\uc2a4 \uad11\ud654\ubb38\uc810", "type": "\ucee4\ud53c\uc804\ubb38\uc810", "star": 3.6, "reply": 16, "review": 21, "tvshow": "", "address": "\uc11c\uc6b8 \uc885\ub85c\uad6c \uc0c8\ubb38\uc548\ub85c 85", "lat": "37.57039664572716", "lng": "126.97412453228655", "url": "https://place.map.kakao.com/m/18677957", "category": ["\uc74c\uc2dd\uc810 ", " \uce74\ud398 ", " \ucee4\ud53c\uc804\ubb38\uc810 ", " \ud22c\uc378\ud50c\ub808\uc774\uc2a4"]}, {"name": "\ud55c\uc554\ub3d9 \uc815\ub3d9\uc810", "type": "\uacf0\ud0d5", "star": 3.9, "reply": 12, "review": 175, "tvshow": "", "address": "\uc11c\uc6b8 \uc911\uad6c \uc815\ub3d9\uae38 21-15 \uc815\ub3d9\ube4c\ub529 \uc2e0\uad00 1\uce35", "lat": "37.5678496700061", "lng": "126.970853029251", "url": "https://place.map.kakao.com/m/2020553120", "category": ["\uc74c\uc2dd\uc810 ", " \ud55c\uc2dd ", " \uacf0\ud0d5"]}, {"name": "\uc870\uc6b0", "type": "\uc774\ud0c8\ub9ac\uc548", "star": 3.6, "reply": 22, "review": 26, "tvshow": "", "address": "\uc11c\uc6b8 \uc885\ub85c\uad6c \uacbd\ud76c\uad811\uae38 10-1", "lat": "37.5713302992867", "lng": "126.971194660962", "url": "https://place.map.kakao.com/m/1518776935", "category": ["\uc74c\uc2dd\uc810 ", " \uc591\uc2dd ", " \uc774\ud0c8\ub9ac\uc548"]}, {"name": "\uc5d8\uafb8\ube44\ub610", "type": "\uc591\uc2dd", "star": 3.6, "reply": 15, "review": 41, "tvshow": "", "address": "\uc11c\uc6b8 \uc885\ub85c\uad6c \uc0c8\ubb38\uc548\ub85c 68 \ud765\uad6d\uc0dd\uba85\ube4c\ub529 \uc9c0\ud5581\uce35", "lat": "37.5696609926334", "lng": "126.972185758856", "url": "https://place.map.kakao.com/m/1324126966", "category": ["\uc74c\uc2dd\uc810 ", " \uc591\uc2dd"]}, {"name": "\ucd98\ub9ac\ub9c8\ub77c\ud0d5", "type": "\uc911\ud654\uc694\ub9ac", "star": 4.4, "reply": 13, "review": 22, "tvshow": "", "address": "\uc11c\uc6b8 \uc885\ub85c\uad6c \uc0c8\ubb38\uc548\ub85c 92", "lat": "37.5697012461836", "lng": "126.974906949753", "url": "https://place.map.kakao.com/m/1691031270", "category": ["\uc74c\uc2dd\uc810 ", " \uc911\uc2dd ", " \uc911\ud654\uc694\ub9ac"]}, {"name": "\ucd08\uc6d0\uc8fd\uc9d1", "type": "\uc8fd", "star": 3.5, "reply": 24, "review": 25, "tvshow": "", "address": "\uc11c\uc6b8 \uc885\ub85c\uad6c \uc0c8\ubb38\uc548\ub85c5\uae38 13", "lat": "37.5714490954993", "lng": "126.974526019536", "url": "https://place.map.kakao.com/m/8588121", "category": ["\uc74c\uc2dd\uc810 ", " \ud55c\uc2dd ", " \uc8fd"]}, {"name": "\ud3ec\uc2dc\uc98c\uc2a4\ud638\ud154 \ubcf4\uce7c\ub9ac\ub178", "type": "\uc774\ud0c8\ub9ac\uc548", "star": 4.2, "reply": 31, "review": 82, "tvshow": "", "address": "\uc11c\uc6b8 \uc885\ub85c\uad6c \uc0c8\ubb38\uc548\ub85c 97 \ud3ec\uc2dc\uc98c\uc2a4\ud638\ud154 2\uce35", "lat": "37.570667205687", "lng": "126.975345827644", "url": "https://place.map.kakao.com/m/27392890", "category": ["\uc74c\uc2dd\uc810 ", " \uc591\uc2dd ", " \uc774\ud0c8\ub9ac\uc548"]}, {"name": "\uc624\uc591\uc2dd\uad00", "type": "\ud55c\uc2dd", "star": 3.6, "reply": 22, "review": 20, "tvshow": "", "address": "\uc11c\uc6b8 \uc911\uad6c \uc138\uc885\ub300\ub85c21\uae38 49 \uc624\uc591\uc218\uc0b0\ube4c\ub529 \uc9c0\ud5581\uce35", "lat": "37.5687679899616", "lng": "126.975744894793", "url": "https://place.map.kakao.com/m/19972929", "category": ["\uc74c\uc2dd\uc810 ", " \ud55c\uc2dd"]}, {"name": "\ud3ec\uc2dc\uc98c\uc2a4\ud638\ud154 \ucc30\uc2a4H", "type": "\uce75\ud14c\uc77c\ubc14", "star": 4.0, "reply": 26, "review": 55, "tvshow": "", "address": "\uc11c\uc6b8 \uc885\ub85c\uad6c \uc0c8\ubb38\uc548\ub85c 97 \ud3ec\uc2dc\uc98c\uc2a4\ud638\ud154 \uc9c0\ud5581\uce35", "lat": "37.5706816357747", "lng": "126.975413740729", "url": "https://place.map.kakao.com/m/27438951", "category": ["\uc74c\uc2dd\uc810 ", " \uc220\uc9d1 ", " \uce75\ud14c\uc77c\ubc14"]}, {"name": "\uc7a5\uc218\ud55c\ubc29\uc0bc\uacc4\ud0d5", "type": "\uc0bc\uacc4\ud0d5", "star": 4.0, "reply": 15, "review": 20, "tvshow": "", "address": "\uc11c\uc6b8 \uc885\ub85c\uad6c \uc0c8\ubb38\uc548\ub85c5\uae38 13", "lat": "37.5713697834493", "lng": "126.974412849104", "url": "https://place.map.kakao.com/m/9567698", "category": ["\uc74c\uc2dd\uc810 ", " \ud55c\uc2dd ", " \uc721\ub958,\uace0\uae30 ", " \ub2ed\uc694\ub9ac ", " \uc0bc\uacc4\ud0d5"]}, {"name": "\ud48d\ub144\uc625", "type": "\uc124\ub801\ud0d5", "star": 3.8, "reply": 23, "review": 20, "tvshow": "", "address": "\uc11c\uc6b8 \uc885\ub85c\uad6c \uc0c8\ubb38\uc548\ub85c7\uae38 26", "lat": "37.5713987672281", "lng": "126.975123719419", "url": "https://place.map.kakao.com/m/11422210", "category": ["\uc74c\uc2dd\uc810 ", " \ud55c\uc2dd ", " \uc124\ub801\ud0d5"]}, {"name": "\uc815\uc6d0\ub808\uc2a4\ud1a0\ub791 \uc5b4\ubc18\uac00\ub4e0", "type": "\uc774\ud0c8\ub9ac\uc548", "star": 3.9, "reply": 176, "review": 318, "tvshow": "", "address": "\uc11c\uc6b8 \uc911\uad6c \uc815\ub3d9\uae38 12-15", "lat": "37.5674329910375", "lng": "126.969202859743", "url": "https://place.map.kakao.com/m/15982071", "category": ["\uc74c\uc2dd\uc810 ", " \uc591\uc2dd ", " \uc774\ud0c8\ub9ac\uc548"]}, {"name": "\uc2a4\uc2dc\ucfe0\ub2c8", "type": "\ucd08\ubc25,\ub864", "star": 4.4, "reply": 37, "review": 75, "tvshow": "", "address": "\uc11c\uc6b8 \uc885\ub85c\uad6c \uacbd\uad50\uc7a5\uae38 35 \ud330\ub9ac\uc2a4\uc5d0\ube44\ub274 3133\ud638", "lat": "37.567893364828", "lng": "126.96580237705", "url": "https://place.map.kakao.com/m/485135327", "category": ["\uc74c\uc2dd\uc810 ", " \uc77c\uc2dd ", " \ucd08\ubc25,\ub864"]}, {"name": "\uad50\ub0a8\uae40\ubc25", "type": "\ubd84\uc2dd", "star": 3.5, "reply": 60, "review": 103, "tvshow": "", "address": "\uc11c\uc6b8 \uc885\ub85c\uad6c \ud3c9\ub3d9 233 \uacbd\ud76c\uad81\uc790\uc7743\ub2e8\uc9c0 \uc0c1\uac00 1\uce35 3116\ud638", "lat": "37.56835273122766", "lng": "126.96531770152448", "url": "https://place.map.kakao.com/m/1235019839", "category": ["\uc74c\uc2dd\uc810 ", " \ubd84\uc2dd"]}, {"name": "\ud5c8\uc218\uc544\ube44 \ub3c8\uae4c\uc2a4\uce74\ub808\uc804\ubb38\uc810 \uc815\ub3d9\uc810", "type": "", "star": 4.2, "reply": 33, "review": 39, "tvshow": "", "address": "\uc11c\uc6b8 \uc911\uad6c \uc815\ub3d9\uae38 2-2 2\uce35", "lat": "37.5679087861212", "lng": "126.969469797457", "url": "https://place.map.kakao.com/m/8154529", "category": ["\uc74c\uc2dd\uc810 ", " \uc77c\uc2dd ", " \ub3c8\uae4c\uc2a4,\uc6b0\ub3d9"]}, {"name": "\ub85c\ub380\ub098\ubb34", "type": "\ub5a1\ubcf6\uc774", "star": 3.7, "reply": 32, "review": 32, "tvshow": "", "address": "\uc11c\uc6b8 \uc911\uad6c \uc815\ub3d9\uae38 2-2", "lat": "37.5678979730029", "lng": "126.969465274183", "url": "https://place.map.kakao.com/m/11646849", "category": ["\uc74c\uc2dd\uc810 ", " \ubd84\uc2dd ", " \ub5a1\ubcf6\uc774"]}, {"name": "\uaf43\uc758\uc628\ub3c4", "type": "\ud14c\ub9c8\uce74\ud398", "star": 4.1, "reply": 11, "review": 29, "tvshow": "", "address": "\uc11c\uc6b8 \uc885\ub85c\uad6c \uacbd\uad50\uc7a5\uae38 35 \uacbd\ud76c\uad81\uc790\uc774 3\ub2e8\uc9c0\uc0c1\uac00 1\uce35 3113\ud638", "lat": "37.5686175665442", "lng": "126.965122886292", "url": "https://place.map.kakao.com/m/2028159141", "category": ["\uc74c\uc2dd\uc810 ", " \uce74\ud398 ", " \ud14c\ub9c8\uce74\ud398"]}, {"name": "\ub355\uc218\uad81 \ub9ac\uc5d0\uc81c\uc640\ud50c", "type": "\uce74\ud398", "star": 3.5, "reply": 106, "review": 429, "tvshow": "", "address": "\uc11c\uc6b8 \uc911\uad6c \ub355\uc218\uad81\uae38 5 1\uce35", "lat": "37.5647929393394", "lng": "126.976452473606", "url": "https://place.map.kakao.com/m/243733683", "category": ["\uc74c\uc2dd\uc810 ", " \uce74\ud398"]}, {"name": "\uc801\ub2f9", "type": "\ub514\uc800\ud2b8\uce74\ud398", "star": 3.7, "reply": 57, "review": 414, "tvshow": "", "address": "\uc11c\uc6b8 \uc911\uad6c \uc744\uc9c0\ub85c 29 1\uce35", "lat": "37.56646421202285", "lng": "126.98104067102928", "url": "https://place.map.kakao.com/m/1345866783", "category": ["\uc74c\uc2dd\uc810 ", " \uce74\ud398 ", " \ud14c\ub9c8\uce74\ud398 ", " \ub514\uc800\ud2b8\uce74\ud398"]}, {"name": "\ub86f\ub370\ud638\ud154\uc11c\uc6b8 \ub77c\uc138\ub290", "type": "\ubdd4\ud398", "star": 4.0, "reply": 161, "review": 313, "tvshow": "", "address": "\uc11c\uc6b8 \uc911\uad6c \uc744\uc9c0\ub85c 30 \ub86f\ub370\ud638\ud154\uc11c\uc6b8 \ubcf8\uad00 1\uce35", "lat": "37.56530912605071", "lng": "126.98098436963745", "url": "https://place.map.kakao.com/m/27348727", "category": ["\uc74c\uc2dd\uc810 ", " \ubdd4\ud398"]}, {"name": "\ud06c\ub9ac\uc2a4\ud0c8\uc81c\uc774\ub4dc \uc18c\uacf5\uc810", "type": "\uc911\ud654\uc694\ub9ac", "star": 3.8, "reply": 87, "review": 101, "tvshow": "", "address": "\uc11c\uc6b8 \uc911\uad6c \ub0a8\ub300\ubb38\ub85c7\uae38 16 \ud55c\ucef4\ube4c\ub529 \uc9c0\ud5581\uce35", "lat": "37.564292854429475", "lng": "126.98131060576029", "url": "https://place.map.kakao.com/m/15300740", "category": ["\uc74c\uc2dd\uc810 ", " \uc911\uc2dd ", " \uc911\ud654\uc694\ub9ac"]}, {"name": "\uc138\uad11\uc591\ub300\ucc3d \uc2dc\uccad\uc810", "type": "\uacf1\ucc3d,\ub9c9\ucc3d", "star": 4.0, "reply": 17, "review": 121, "tvshow": "", "address": "\uc11c\uc6b8 \uc911\uad6c \ub0a8\ub300\ubb38\ub85c1\uae38 37 1\uce35", "lat": "37.56268656054358", "lng": "126.97722052618025", "url": "https://place.map.kakao.com/m/1239408575", "category": ["\uc74c\uc2dd\uc810 ", " \ud55c\uc2dd ", " \uc721\ub958,\uace0\uae30 ", " \uacf1\ucc3d,\ub9c9\ucc3d"]}, {"name": "\ub77c\uce78\ud2f0\ub098", "type": "\uc774\ud0c8\ub9ac\uc548", "star": 3.6, "reply": 49, "review": 88, "tvshow": "tv\uc18c\uac1c", "address": "\uc11c\uc6b8 \uc911\uad6c \uc744\uc9c0\ub85c 19 \uc0bc\uc131\ube4c\ub529 \uc9c0\ud5581\uce35", "lat": "37.56621445453592", "lng": "126.97994166288005", "url": "https://place.map.kakao.com/m/10372376", "category": ["\uc74c\uc2dd\uc810 ", " \uc591\uc2dd ", " \uc774\ud0c8\ub9ac\uc548"]}, {"name": "\uad50\ub300\uc774\uce35\uc9d1 \uc2dc\uccad\uc810", "type": "\uc0bc\uacb9\uc0b4", "star": 4.4, "reply": 27, "review": 59, "tvshow": "", "address": "\uc11c\uc6b8 \uc911\uad6c \ub0a8\ub300\ubb38\ub85c1\uae38 38 2\uce35", "lat": "37.56278211005949", "lng": "126.97744912967885", "url": "https://place.map.kakao.com/m/871390985", "category": ["\uc74c\uc2dd\uc810 ", " \ud55c\uc2dd ", " \uc721\ub958,\uace0\uae30 ", " \uc0bc\uacb9\uc0b4"]}, {"name": "\ucee4\ud53c\uc2a4\ub2c8\ud37c", "type": "\uce74\ud398", "star": 4.4, "reply": 61, "review": 115, "tvshow": "", "address": "\uc11c\uc6b8 \uc911\uad6c \uc138\uc885\ub300\ub85c16\uae38 27 \ub0a8\uc591\ube4c\ub529 1\uce35 102\ud638", "lat": "37.56337334644295", "lng": "126.97842687285194", "url": "https://place.map.kakao.com/m/1965342185", "category": ["\uc74c\uc2dd\uc810 ", " \uce74\ud398"]}, {"name": "\uc11c\uc6b8\uc6e8\uc2a4\ud2f4\uc870\uc120\ud638\ud154 \uc544\ub9ac\uc544", "type": "\ubdd4\ud398", "star": 3.9, "reply": 83, "review": 238, "tvshow": "", "address": "\uc11c\uc6b8 \uc911\uad6c \uc18c\uacf5\ub85c 106", "lat": "37.56443681437021", "lng": "126.9800904144209", "url": "https://place.map.kakao.com/m/21306149", "category": ["\uc74c\uc2dd\uc810 ", " \ubdd4\ud398"]}, {"name": "\ud48d\ub144\ub2ed\ub3c4\ub9ac\ud0d5", "type": "\ub2ed\uc694\ub9ac", "star": 3.9, "reply": 86, "review": 76, "tvshow": "", "address": "\uc11c\uc6b8 \uc911\uad6c \uc138\uc885\ub300\ub85c14\uae38 17-5 1\uce35", "lat": "37.5630812898836", "lng": "126.97770710108", "url": "https://place.map.kakao.com/m/13288545", "category": ["\uc74c\uc2dd\uc810 ", " \ud55c\uc2dd ", " \uc721\ub958,\uace0\uae30 ", " \ub2ed\uc694\ub9ac"]}, {"name": "\uc624\ubaa9\uc9d1 \uc2dc\uccad\uc810", "type": "\uc871\ubc1c,\ubcf4\uc308", "star": 4.1, "reply": 21, "review": 80, "tvshow": "", "address": "\uc11c\uc6b8 \uc911\uad6c \ub0a8\ub300\ubb38\ub85c1\uae38 38 1\uce35", "lat": "37.56278211005949", "lng": "126.97744912967885", "url": "https://place.map.kakao.com/m/620041434", "category": ["\uc74c\uc2dd\uc810 ", " \ud55c\uc2dd ", " \uc721\ub958,\uace0\uae30 ", " \uc871\ubc1c,\ubcf4\uc308"]}, {"name": "\ucc9c\ud5a5\uc6d0", "type": "\uc0e4\ube0c\uc0e4\ube0c", "star": 4.5, "reply": 17, "review": 121, "tvshow": "", "address": "\uc11c\uc6b8 \uc911\uad6c \ub0a8\ub300\ubb38\ub85c7\uae38 33 \uc18c\uacf5\ube4c\ub529 2\uce35", "lat": "37.5638205195391", "lng": "126.980011348218", "url": "https://place.map.kakao.com/m/617004084", "category": ["\uc74c\uc2dd\uc810 ", " \uc0e4\ube0c\uc0e4\ube0c"]}, {"name": "\uc9c4\ub300\uac10 \uc2dc\uccad\uc810", "type": "\uc721\ub958,\uace0\uae30", "star": 4.2, "reply": 10, "review": 46, "tvshow": "", "address": "\uc11c\uc6b8 \uc911\uad6c \ub0a8\ub300\ubb38\ub85c1\uae38 57 1\uce35", "lat": "37.563598417975", "lng": "126.977476048188", "url": "https://place.map.kakao.com/m/815706578", "category": ["\uc74c\uc2dd\uc810 ", " \ud55c\uc2dd ", " \uc721\ub958,\uace0\uae30"]}, {"name": "\ud604\ub300\uce7c\uad6d\uc218", "type": "\uad6d\uc218", "star": 4.1, "reply": 66, "review": 161, "tvshow": "", "address": "\uc11c\uc6b8 \uc911\uad6c \uc138\uc885\ub300\ub85c 76", "lat": "37.562847796779955", "lng": "126.97700316275125", "url": "https://place.map.kakao.com/m/8672604", "category": ["\uc74c\uc2dd\uc810 ", " \ud55c\uc2dd ", " \uad6d\uc218"]}, {"name": "\ub9e5\ub3c4\ub0a0\ub4dc \uc11c\uc6b8\uc2dc\uccad\uc810", "type": "\ud328\uc2a4\ud2b8\ud478\ub4dc", "star": 3.5, "reply": 28, "review": 25, "tvshow": "", "address": "\uc11c\uc6b8 \uc911\uad6c \ub0a8\ub300\ubb38\ub85c9\uae38 51 1\uce35", "lat": "37.5668369438027", "lng": "126.979367619692", "url": "https://place.map.kakao.com/m/11902329", "category": ["\uc74c\uc2dd\uc810 ", " \ud328\uc2a4\ud2b8\ud478\ub4dc ", " \ub9e5\ub3c4\ub0a0\ub4dc"]}, {"name": "\uc2a4\ud0c0\ubc85\uc2a4 \ud658\uad6c\ub2e8\uc810", "type": "\ucee4\ud53c\uc804\ubb38\uc810", "star": 4.3, "reply": 40, "review": 42, "tvshow": "", "address": "\uc11c\uc6b8 \uc911\uad6c \uc18c\uacf5\ub85c 112 \ubc18\ub3c4\uc870\uc120\uc544\ucf00\uc774\ub4dc", "lat": "37.564506951236616", "lng": "126.97927205330446", "url": "https://place.map.kakao.com/m/22894118", "category": ["\uc74c\uc2dd\uc810 ", " \uce74\ud398 ", " \ucee4\ud53c\uc804\ubb38\uc810 ", " \uc2a4\ud0c0\ubc85\uc2a4"]}, {"name": "\uc8fc\uc625", "type": "\ud55c\uc2dd", "star": 4.2, "reply": 29, "review": 71, "tvshow": "", "address": "\uc11c\uc6b8 \uc911\uad6c \uc18c\uacf5\ub85c 119 \ub354\ud50c\ub77c\uc790\ud638\ud154 3\uce35", "lat": "37.564663511405584", "lng": "126.9780914664115", "url": "https://place.map.kakao.com/m/27584398", "category": ["\uc74c\uc2dd\uc810 ", " \ud55c\uc2dd"]}, {"name": "\ube44\uc5b4\ubc14\ub098 \uc2dc\uccad\uc810", "type": "\uc591\uc2dd", "star": 4.8, "reply": 56, "review": 232, "tvshow": "", "address": "\uc11c\uc6b8 \uc911\uad6c \ub0a8\ub300\ubb38\ub85c9\uae38 24 \ud328\uc2a4\ud2b8\ud30c\uc774\ube0c 2\uce35", "lat": "37.5670895194673", "lng": "126.981142384416", "url": "https://place.map.kakao.com/m/1076802742", "category": ["\uc74c\uc2dd\uc810 ", " \uc591\uc2dd"]}, {"name": "\uc2a4\uc2dc\uc870", "type": "\ucd08\ubc25,\ub864", "star": 4.4, "reply": 80, "review": 87, "tvshow": "", "address": "\uc11c\uc6b8 \uc911\uad6c \uc18c\uacf5\ub85c 106 \uc11c\uc6b8\uc6e8\uc2a4\ud2f4\uc870\uc120\ud638\ud154 20\uce35", "lat": "37.564489965120416", "lng": "126.98004286172093", "url": "https://place.map.kakao.com/m/21306205", "category": ["\uc74c\uc2dd\uc810 ", " \uc77c\uc2dd ", " \ucd08\ubc25,\ub864"]}, {"name": "\uc138\ube10\uc2a4\ud018\uc5b4", "type": "\ubdd4\ud398", "star": 4.1, "reply": 39, "review": 55, "tvshow": "", "address": "\uc11c\uc6b8 \uc911\uad6c \uc18c\uacf5\ub85c 119 \ud504\ub77c\uc790\ud638\ud154 2\uce35", "lat": "37.5647716435277", "lng": "126.978159347221", "url": "https://place.map.kakao.com/m/21340612", "category": ["\uc74c\uc2dd\uc810 ", " \ubdd4\ud398"]}, {"name": "\ub354 \ud50c\ub77c\uc790 \ub3c4\uc6d0", "type": "\uc911\uc2dd", "star": 4.3, "reply": 61, "review": 64, "tvshow": "", "address": "\uc11c\uc6b8 \uc911\uad6c \uc18c\uacf5\ub85c 119 \ub354 \ud50c\ub77c\uc790\ud638\ud154 3\uce35", "lat": "37.5646707176943", "lng": "126.978082409316", "url": "https://place.map.kakao.com/m/27025622", "category": ["\uc74c\uc2dd\uc810 ", " \uc911\uc2dd"]}, {"name": "\ub0a8\ub9e4\uc9d1", "type": "\uc721\ub958,\uace0\uae30", "star": 3.9, "reply": 35, "review": 23, "tvshow": "tv\uc18c\uac1c", "address": "\uc11c\uc6b8 \uc911\uad6c \ub0a8\ub300\ubb38\ub85c1\uae38 41", "lat": "37.5628325232794", "lng": "126.97722727281", "url": "https://place.map.kakao.com/m/17149624", "category": ["\uc74c\uc2dd\uc810 ", " \ud55c\uc2dd ", " \uc721\ub958,\uace0\uae30"]}, {"name": "\ubd81\ucc3d\ub3d9\uc21c\ub450\ubd80 \ubcf8\uc810", "type": "\ub450\ubd80\uc804\ubb38\uc810", "star": 3.5, "reply": 13, "review": 29, "tvshow": "", "address": "\uc11c\uc6b8 \uc911\uad6c \uc138\uc885\ub300\ub85c 78 \ub514\uc9c0\ud2c0\uc870\uc120\uc77c\ubcf4\ube4c\ub529 2\uce35", "lat": "37.563120799136", "lng": "126.977005342534", "url": "https://place.map.kakao.com/m/27390577", "category": ["\uc74c\uc2dd\uc810 ", " \ud55c\uc2dd ", " \ub450\ubd80\uc804\ubb38\uc810 ", " LA\ubd81\ucc3d\ub3d9\uc21c\ub450\ubd80"]}, {"name": "\uc11c\uc6b8 \uc6e8\uc2a4\ud2f4\uc870\uc120\ud638\ud154 \ud64d\uc5f0", "type": "\uc911\ud654\uc694\ub9ac", "star": 3.9, "reply": 19, "review": 69, "tvshow": "", "address": "\uc11c\uc6b8 \uc911\uad6c \uc18c\uacf5\ub85c 106 1\uce35", "lat": "37.5644404195001", "lng": "126.980097204679", "url": "https://place.map.kakao.com/m/21306045", "category": ["\uc74c\uc2dd\uc810 ", " \uc911\uc2dd ", " \uc911\ud654\uc694\ub9ac"]}, {"name": "\uc11c\uc6b8 \uc6e8\uc2a4\ud2f4\uc870\uc120\ud638\ud154 \ub098\uc778\uc2a4\uac8c\uc774\ud2b8\uadf8\ub9b4", "type": "", "star": 4.2, "reply": 22, "review": 38, "tvshow": "", "address": "\uc11c\uc6b8 \uc911\uad6c \uc18c\uacf5\ub85c 106 \ub85c\ube44", "lat": "37.56448187751539", "lng": "126.98016963334433", "url": "https://place.map.kakao.com/m/8225675", "category": ["\uc74c\uc2dd\uc810 ", " \uc591\uc2dd"]}, {"name": "\ub86f\ub370\ud638\ud154\uc11c\uc6b8 \ud53c\uc5d0\ub974\uac00\ub2c8\uc5d0\ub974\uc11c\uc6b8", "type": "", "star": 4.0, "reply": 51, "review": 27, "tvshow": "", "address": "\uc11c\uc6b8 \uc911\uad6c \uc744\uc9c0\ub85c 30 \uc2e0\uad00 35\uce35", "lat": "37.5653451615156", "lng": "126.980957195279", "url": "https://place.map.kakao.com/m/7856129", "category": ["\uc74c\uc2dd\uc810 ", " \uc591\uc2dd"]}, {"name": "\uc7a5\uc548\uc0bc\uacc4\ud0d5", "type": "\uc0bc\uacc4\ud0d5", "star": 4.2, "reply": 19, "review": 23, "tvshow": "", "address": "\uc11c\uc6b8 \uc911\uad6c \uc138\uc885\ub300\ub85c18\uae38 8", "lat": "37.5636867207938", "lng": "126.977503186199", "url": "https://place.map.kakao.com/m/10735673", "category": ["\uc74c\uc2dd\uc810 ", " \ud55c\uc2dd ", " \uc721\ub958,\uace0\uae30 ", " \ub2ed\uc694\ub9ac ", " \uc0bc\uacc4\ud0d5"]}, {"name": "\uc2a4\ud0c0\ubc85\uc2a4 \uc2dc\uccad\ud50c\ub7ec\uc2a4\uc810", "type": "\ucee4\ud53c\uc804\ubb38\uc810", "star": 4.1, "reply": 15, "review": 20, "tvshow": "", "address": "\uc11c\uc6b8 \uc911\uad6c \uc744\uc9c0\ub85c 19 \uc0bc\uc131\ud654\uc7ac\uc0bc\uc131\ube4c\ub529 1\uce35", "lat": "37.5664117973616", "lng": "126.980087624992", "url": "https://place.map.kakao.com/m/17884782", "category": ["\uc74c\uc2dd\uc810 ", " \uce74\ud398 ", " \ucee4\ud53c\uc804\ubb38\uc810 ", " \uc2a4\ud0c0\ubc85\uc2a4"]}, {"name": "\uc11c\uc6b8\uace0\uae30\uc9d1", "type": "\uc721\ub958,\uace0\uae30", "star": 4.0, "reply": 15, "review": 26, "tvshow": "", "address": "\uc11c\uc6b8 \uc911\uad6c \ub0a8\ub300\ubb38\ub85c9\uae38 12 \ub098\uc804\ube4c\ub529 1\uce35", "lat": "37.5668517526157", "lng": "126.981753673644", "url": "https://place.map.kakao.com/m/26421752", "category": ["\uc74c\uc2dd\uc810 ", " \ud55c\uc2dd ", " \uc721\ub958,\uace0\uae30"]}, {"name": "\ub86f\ub370\ud638\ud154\uc11c\uc6b8 \ubaa8\ubaa8\uc57c\ub9c8", "type": "\ucd08\ubc25,\ub864", "star": 4.5, "reply": 26, "review": 32, "tvshow": "", "address": "\uc11c\uc6b8 \uc911\uad6c \uc744\uc9c0\ub85c 30 \ub86f\ub370\ud638\ud154\uc11c\uc6b8 \ubcf8\uad00 38\uce35", "lat": "37.5653523694842", "lng": "126.980957193444", "url": "https://place.map.kakao.com/m/7856128", "category": ["\uc74c\uc2dd\uc810 ", " \uc77c\uc2dd ", " \ucd08\ubc25,\ub864"]}, {"name": "\ud53c\uc288\ub9c8\ub77c\ud64d\ud0d5 \uc11c\uc6b8\uc2dc\uccad\uc810", "type": "\uc911\ud654\uc694\ub9ac", "star": 4.3, "reply": 13, "review": 39, "tvshow": "", "address": "\uc11c\uc6b8 \uc911\uad6c \ubb34\uad50\ub85c 14 \uc601\ubbf8\ube4c\ub529 2\uce35", "lat": "37.56713967998075", "lng": "126.97937659147534", "url": "https://place.map.kakao.com/m/1820798534", "category": ["\uc74c\uc2dd\uc810 ", " \uc911\uc2dd ", " \uc911\ud654\uc694\ub9ac ", " \ud53c\uc288\ub9c8\ub77c\ud64d\ud0d5"]}, {"name": "\uba85\ub3d9\uad50\uc790 \ubd84\uc810", "type": "\uad6d\uc218", "star": 3.6, "reply": 142, "review": 196, "tvshow": "", "address": "\uc11c\uc6b8 \uc911\uad6c \uba85\ub3d910\uae38 8", "lat": "37.56340140340698", "lng": "126.98507084707742", "url": "https://place.map.kakao.com/m/26567082", "category": ["\uc74c\uc2dd\uc810 ", " \ud55c\uc2dd ", " \uad6d\uc218"]}, {"name": "\ub974\ube75 \uba85\ub3d9\uc131\ub2f9\uc810", "type": "\uc81c\uacfc,\ubca0\uc774\ucee4\ub9ac", "star": 4.0, "reply": 47, "review": 84, "tvshow": "", "address": "\uc11c\uc6b8 \uc911\uad6c \uba85\ub3d92\uac00 1-18 1898\uad11\uc7a5 \uc9c0\ud558 103\ud638", "lat": "37.56397729226162", "lng": "126.986327099649", "url": "https://place.map.kakao.com/m/26934440", "category": ["\uc74c\uc2dd\uc810 ", " \uac04\uc2dd ", " \uc81c\uacfc,\ubca0\uc774\ucee4\ub9ac"]}, {"name": "\ud64d\ub9cc\ub2f9 \uba85\ub3d9\ubcf8\uc810", "type": "\ub514\uc800\ud2b8\uce74\ud398", "star": 3.7, "reply": 18, "review": 236, "tvshow": "", "address": "\uc11c\uc6b8 \uc911\uad6c \uba85\ub3d98\uae38 11-6 1\uce35", "lat": "37.5631545168875", "lng": "126.984964502429", "url": "https://place.map.kakao.com/m/875047420", "category": ["\uc74c\uc2dd\uc810 ", " \uce74\ud398 ", " \ud14c\ub9c8\uce74\ud398 ", " \ub514\uc800\ud2b8\uce74\ud398"]}, {"name": "\ubbf8\uc131\uc625", "type": "\uc124\ub801\ud0d5", "star": 3.9, "reply": 82, "review": 109, "tvshow": "", "address": "\uc11c\uc6b8 \uc911\uad6c \uba85\ub3d9\uae38 25-11", "lat": "37.5641707054203", "lng": "126.983936564299", "url": "https://place.map.kakao.com/m/19157171", "category": ["\uc74c\uc2dd\uc810 ", " \ud55c\uc2dd ", " \uc124\ub801\ud0d5"]}, {"name": "\uac13\ub374\uc2a4\uc2dc \uba85\ub3d9\uc810", "type": "\ucd08\ubc25,\ub864", "star": 3.6, "reply": 37, "review": 57, "tvshow": "", "address": "\uc11c\uc6b8 \uc911\uad6c \uba85\ub3d93\uae38 12", "lat": "37.5642391463686", "lng": "126.983683011493", "url": "https://place.map.kakao.com/m/27403331", "category": ["\uc74c\uc2dd\uc810 ", " \uc77c\uc2dd ", " \ucd08\ubc25,\ub864"]}, {"name": "\ubabd\uc911\ud5cc \ud398\ub7fc\ud0c0\uc6cc\uc810", "type": "\uc911\ud654\uc694\ub9ac", "star": 3.6, "reply": 42, "review": 62, "tvshow": "", "address": "\uc11c\uc6b8 \uc911\uad6c \uc744\uc9c0\ub85c5\uae38 19 \ud398\ub7fc\ud0c0\uc6cc \uc9c0\ud5582\uce35", "lat": "37.56711878289866", "lng": "126.98407176046426", "url": "https://place.map.kakao.com/m/17801741", "category": ["\uc74c\uc2dd\uc810 ", " \uc911\uc2dd ", " \uc911\ud654\uc694\ub9ac"]}, {"name": "\uc2e0\uc138\uacc4\ub5a1\ubcf6\uc774", "type": "\ub5a1\ubcf6\uc774", "star": 3.6, "reply": 32, "review": 69, "tvshow": "tv\uc18c\uac1c", "address": "\uc11c\uc6b8 \uc911\uad6c \uba85\ub3d99\uae38 8-1", "lat": "37.56428977861825", "lng": "126.98501407643128", "url": "https://place.map.kakao.com/m/27281774", "category": ["\uc74c\uc2dd\uc810 ", " \ubd84\uc2dd ", " \ub5a1\ubcf6\uc774"]}, {"name": "\ud654\ub5a1", "type": "\ub5a1\ubcf6\uc774", "star": 3.7, "reply": 29, "review": 106, "tvshow": "", "address": "\uc11c\uc6b8 \uc911\uad6c \uba85\ub3d94\uae38 15", "lat": "37.56301380628925", "lng": "126.98379193615106", "url": "https://place.map.kakao.com/m/25708791", "category": ["\uc74c\uc2dd\uc810 ", " \ubd84\uc2dd ", " \ub5a1\ubcf6\uc774"]}, {"name": "\uc544\uc6c3\ubc31\uc2a4\ud14c\uc774\ud06c\ud558\uc6b0\uc2a4 \uba85\ub3d9\uc810", "type": "\ud328\ubc00\ub9ac\ub808\uc2a4\ud1a0\ub791", "star": 4.3, "reply": 28, "review": 106, "tvshow": "", "address": "\uc11c\uc6b8 \uc911\uad6c \uba85\ub3d93\uae38 36 \ub9c8\uc774\ud2f0\ube4c\ub529 3\uce35", "lat": "37.5653455771729", "lng": "126.983737100564", "url": "https://place.map.kakao.com/m/1659944507", "category": ["\uc74c\uc2dd\uc810 ", " \ud328\ubc00\ub9ac\ub808\uc2a4\ud1a0\ub791 ", " \uc544\uc6c3\ubc31\uc2a4\ud14c\uc774\ud06c\ud558\uc6b0\uc2a4"]}, {"name": "\uba85\ub3d9\ud568\ud765\uba74\uc625 \ubcf8\uc810", "type": "\ub0c9\uba74", "star": 3.5, "reply": 102, "review": 47, "tvshow": "", "address": "\uc11c\uc6b8 \uc911\uad6c \uba85\ub3d910\uae38 35-19", "lat": "37.5627689804276", "lng": "126.985688960277", "url": "https://place.map.kakao.com/m/7871208", "category": ["\uc74c\uc2dd\uc810 ", " \ud55c\uc2dd ", " \ub0c9\uba74"]}, {"name": "\ucbd4\ub8e8\ud558\uc2dc\ud6c4\uac8c\uce20 \uba85\ub3d9\uc810", "type": "\ud4e8\uc804\uc77c\uc2dd", "star": 3.5, "reply": 74, "review": 80, "tvshow": "", "address": "\uc11c\uc6b8 \uc911\uad6c \uba85\ub3d98\uae38 21-5 \ud574\uc554\ube4c\ub529 2\uce35", "lat": "37.562815751420835", "lng": "126.98503700859186", "url": "https://place.map.kakao.com/m/21396812", "category": ["\uc74c\uc2dd\uc810 ", " \ud4e8\uc804\uc694\ub9ac ", " \ud4e8\uc804\uc77c\uc2dd"]}, {"name": "\ub9c8\ub178\ub514\uc170\ud504 \uba85\ub3d9\uc810", "type": "\uc774\ud0c8\ub9ac\uc548", "star": 4.1, "reply": 68, "review": 53, "tvshow": "", "address": "\uc11c\uc6b8 \uc911\uad6c \uba85\ub3d9\uae38 26 \uc720\ub124\uc2a4\ucf54\ube4c\ub529 11\uce35", "lat": "37.5634462783461", "lng": "126.983746568276", "url": "https://place.map.kakao.com/m/13050974", "category": ["\uc74c\uc2dd\uc810 ", " \uc591\uc2dd ", " \uc774\ud0c8\ub9ac\uc548"]}, {"name": "\uac15\ub0a8\uba74\uc625 \uba85\ub3d9\uc810", "type": "\ub0c9\uba74", "star": 3.8, "reply": 30, "review": 53, "tvshow": "", "address": "\uc11c\uc6b8 \uc911\uad6c \uba85\ub3d97\uae38 8 \ubbf8\ub798\ube4c\ub529 5\uce35", "lat": "37.564210423116", "lng": "126.984488906442", "url": "https://place.map.kakao.com/m/25733230", "category": ["\uc74c\uc2dd\uc810 ", " \ud55c\uc2dd ", " \ub0c9\uba74"]}, {"name": "\uc544\uadf8\ub77c \uc13c\ud130\uc6d0\uc810", "type": "\uc778\ub3c4\uc74c\uc2dd", "star": 3.5, "reply": 29, "review": 73, "tvshow": "", "address": "\uc11c\uc6b8 \uc911\uad6c \uc744\uc9c0\ub85c5\uae38 26 \uc9c0\ud5582\uce35", "lat": "37.56706848178138", "lng": "126.98526253983792", "url": "https://place.map.kakao.com/m/18763282", "category": ["\uc74c\uc2dd\uc810 ", " \uc544\uc2dc\uc544\uc74c\uc2dd ", " \uc778\ub3c4\uc74c\uc2dd"]}, {"name": "\ud0d5\ud654\ucff5\ud478\ub9c8\ub77c\ud0d5 \uba85\ub3d9\uc810", "type": "\uc911\ud654\uc694\ub9ac", "star": 4.5, "reply": 19, "review": 133, "tvshow": "", "address": "\uc11c\uc6b8 \uc911\uad6c \uba85\ub3d94\uae38 16-1 2, 3\uce35", "lat": "37.5629092707222", "lng": "126.983647082453", "url": "https://place.map.kakao.com/m/134950958", "category": ["\uc74c\uc2dd\uc810 ", " \uc911\uc2dd ", " \uc911\ud654\uc694\ub9ac"]}, {"name": "\ucf54\uc778 \uba85\ub3d9\uc810", "type": "\uce74\ud398", "star": 3.9, "reply": 47, "review": 62, "tvshow": "", "address": "\uc11c\uc6b8 \uc911\uad6c \uba85\ub3d96\uae38 10", "lat": "37.562887706817", "lng": "126.98408624346", "url": "https://place.map.kakao.com/m/8101536", "category": ["\uc74c\uc2dd\uc810 ", " \uce74\ud398"]}, {"name": "\ud558\uc774\ub514\ub77c\uc624 \uba85\ub3d9\uc810", "type": "\uc911\ud654\uc694\ub9ac", "star": 4.4, "reply": 20, "review": 44, "tvshow": "", "address": "\uc11c\uc6b8 \uc911\uad6c \uba85\ub3d93\uae38 36 \ub9c8\uc774\ud2f0\ube4c\ub529 1\uce35", "lat": "37.5653383688922", "lng": "126.983734838365", "url": "https://place.map.kakao.com/m/1820258951", "category": ["\uc74c\uc2dd\uc810 ", " \uc911\uc2dd ", " \uc911\ud654\uc694\ub9ac"]}, {"name": "\uc13c\ud130\ucee4\ud53c \uba85\ub3d9\uc810", "type": "\uce74\ud398", "star": 3.7, "reply": 18, "review": 109, "tvshow": "", "address": "\uc11c\uc6b8 \uc911\uad6c \uba85\ub3d9\uae38 89 1, 2\uce35", "lat": "37.5647260878514", "lng": "126.986924592233", "url": "https://place.map.kakao.com/m/639493711", "category": ["\uc74c\uc2dd\uc810 ", " \uce74\ud398"]}, {"name": "\uc21c\ub0a8\uc2dc\ub798\uae30 \uba85\ub3d9\uc810", "type": "\ud55c\uc2dd", "star": 4.0, "reply": 17, "review": 44, "tvshow": "", "address": "\uc11c\uc6b8 \uc911\uad6c \uba85\ub3d910\uae38 35-20", "lat": "37.5629131513515", "lng": "126.985784007806", "url": "https://place.map.kakao.com/m/26853115", "category": ["\uc74c\uc2dd\uc810 ", " \ud55c\uc2dd"]}, {"name": "\ubc31\uc81c\uc0bc\uacc4\ud0d5", "type": "\uc0bc\uacc4\ud0d5", "star": 3.7, "reply": 31, "review": 50, "tvshow": "", "address": "\uc11c\uc6b8 \uc911\uad6c \uba85\ub3d98\uae38 8-10", "lat": "37.5633742461121", "lng": "126.984095194797", "url": "https://place.map.kakao.com/m/7885138", "category": ["\uc74c\uc2dd\uc810 ", " \ud55c\uc2dd ", " \uc721\ub958,\uace0\uae30 ", " \ub2ed\uc694\ub9ac ", " \uc0bc\uacc4\ud0d5"]}, {"name": "\ub871\ube0c\ub808\ub4dc \uba85\ub3d9\ub300\uc2e0\ud30c\uc774\ub0b8\uc2a4\uc13c\ud130\uc810", "type": "", "star": 3.6, "reply": 12, "review": 55, "tvshow": "", "address": "\uc11c\uc6b8 \uc911\uad6c \uc0bc\uc77c\ub300\ub85c 343 2\uce35", "lat": "37.5651008161534", "lng": "126.986960633696", "url": "https://place.map.kakao.com/m/1680260729", "category": ["\uc74c\uc2dd\uc810 ", " \uc591\uc2dd"]}, {"name": "\uc6b0\uc5d0\uc2a4\ud1a0", "type": "\uc77c\uc2dd", "star": 3.6, "reply": 20, "review": 66, "tvshow": "", "address": "\uc11c\uc6b8 \uc911\uad6c \uba85\ub3d99\uac00\uae38 14 \uc9c0\ud5581\uce35", "lat": "37.5651365454515", "lng": "126.983732618485", "url": "https://place.map.kakao.com/m/21535061", "category": ["\uc74c\uc2dd\uc810 ", " \uc77c\uc2dd"]}, {"name": "\uc77c\ub9c8\uc9c0\uc624 \uba85\ub3d9\uc810", "type": "\uc774\ud0c8\ub9ac\uc548", "star": 3.6, "reply": 26, "review": 128, "tvshow": "", "address": "\uc11c\uc6b8 \uc911\uad6c \uba85\ub3d93\uae38 17 \ucda9\uc77c\ube4c\ub529 3\uce35", "lat": "37.5645382399004", "lng": "126.983415824681", "url": "https://place.map.kakao.com/m/14748649", "category": ["\uc74c\uc2dd\uc810 ", " \uc591\uc2dd ", " \uc774\ud0c8\ub9ac\uc548"]}, {"name": "\ud3ec\uc5e0", "type": "\uce74\ud398", "star": 4.2, "reply": 38, "review": 63, "tvshow": "", "address": "\uc11c\uc6b8 \uc911\uad6c \uba85\ub3d94\uae38 13 2\uce35", "lat": "37.563060655617", "lng": "126.983773816422", "url": "https://place.map.kakao.com/m/8123091", "category": ["\uc74c\uc2dd\uc810 ", " \uce74\ud398"]}, {"name": "\uc6d0\uc870\ud55c\uce58", "type": "\ud574\ubb3c,\uc0dd\uc120", "star": 4.0, "reply": 28, "review": 26, "tvshow": "tv\uc18c\uac1c", "address": "\uc11c\uc6b8 \uc911\uad6c \uba85\ub3d97\uae38 14-5", "lat": "37.564520377687", "lng": "126.984579391843", "url": "https://place.map.kakao.com/m/8025636", "category": ["\uc74c\uc2dd\uc810 ", " \ud55c\uc2dd ", " \ud574\ubb3c,\uc0dd\uc120"]}, {"name": "\ubc18\ud2f0\uc5d4\uc57c\uc624\uce74\uc624\uc704 \uba85\ub3d9\uc810", "type": "\uc911\uc2dd", "star": 4.8, "reply": 17, "review": 69, "tvshow": "", "address": "\uc11c\uc6b8 \uc911\uad6c \uba85\ub3d97\uae38 13 1\uce35", "lat": "37.56434730407295", "lng": "126.98396142748021", "url": "https://place.map.kakao.com/m/650104974", "category": ["\uc74c\uc2dd\uc810 ", " \uc911\uc2dd"]}, {"name": "\ud654\ud3ec\uc2dd\ub2f9 \uba85\ub3d9\uc810", "type": "\uc721\ub958,\uace0\uae30", "star": 3.9, "reply": 10, "review": 22, "tvshow": "", "address": "\uc11c\uc6b8 \uc911\uad6c \uba85\ub3d97\uae38 21 1\uce35", "lat": "37.564721202073514", "lng": "126.98384815993487", "url": "https://place.map.kakao.com/m/860940495", "category": ["\uc74c\uc2dd\uc810 ", " \ud55c\uc2dd ", " \uc721\ub958,\uace0\uae30"]}, {"name": "\ud2c8\uc0c8\ub77c\uba74 \uba85\ub3d9\ubcf8\uc810", "type": "\ubd84\uc2dd", "star": 4.0, "reply": 54, "review": 46, "tvshow": "", "address": "\uc11c\uc6b8 \uc911\uad6c \uba85\ub3d910\uae38 19-10 2\uce35", "lat": "37.5630285021797", "lng": "126.985978663787", "url": "https://place.map.kakao.com/m/10904319", "category": ["\uc74c\uc2dd\uc810 ", " \ubd84\uc2dd ", " \ud2c8\uc0c8\ub77c\uba74"]}, {"name": "\uc138\uad11\uc591\ub300\ucc3d \uc744\uc9c0\ub85c\uc810", "type": "\uacf1\ucc3d,\ub9c9\ucc3d", "star": 3.8, "reply": 16, "review": 30, "tvshow": "", "address": "\uc11c\uc6b8 \uc911\uad6c \uba85\ub3d99\uae38 45 2\uce35", "lat": "37.5658213365168", "lng": "126.983981485485", "url": "https://place.map.kakao.com/m/157356932", "category": ["\uc74c\uc2dd\uc810 ", " \ud55c\uc2dd ", " \uc721\ub958,\uace0\uae30 ", " \uacf1\ucc3d,\ub9c9\ucc3d"]}, {"name": "\uad6c\ub974\uce74\uc778\ub3c4\ub808\uc2a4\ud1a0\ub791", "type": "\uc778\ub3c4\uc74c\uc2dd", "star": 4.1, "reply": 12, "review": 39, "tvshow": "", "address": "\uc11c\uc6b8 \uc911\uad6c \uba85\ub3d910\uae38 16-1 5\uce35", "lat": "37.56306264513883", "lng": "126.98520107728439", "url": "https://place.map.kakao.com/m/665610955", "category": ["\uc74c\uc2dd\uc810 ", " \uc544\uc2dc\uc544\uc74c\uc2dd ", " \uc778\ub3c4\uc74c\uc2dd"]}, {"name": "\uc624\uc124\ub85d \ud2f0\ud558\uc6b0\uc2a4 \uba85\ub3d9\uc810", "type": "\uce74\ud398", "star": 3.8, "reply": 57, "review": 55, "tvshow": "", "address": "\uc11c\uc6b8 \uc911\uad6c \uba85\ub3d97\uae38 12", "lat": "37.5642969335737", "lng": "126.98460207525", "url": "https://place.map.kakao.com/m/17727412", "category": ["\uc74c\uc2dd\uc810 ", " \uce74\ud398 ", " \uc624\uc124\ub85d \ud2f0\ud558\uc6b0\uc2a4"]}, {"name": "\ucee4\ud53c\ub9ac\ube0c\ub808 \uba85\ub3d9\uc131\ub2f9\uc810", "type": "\ucee4\ud53c\uc804\ubb38\uc810", "star": 3.6, "reply": 20, "review": 22, "tvshow": "", "address": "\uc11c\uc6b8 \uc911\uad6c \uba85\ub3d92\uac00 1-18 \uba85\ub3d9\uc131\ub2f9 1898 1\uce35 102\ud638", "lat": "37.56417645383438", "lng": "126.98668926024787", "url": "https://place.map.kakao.com/m/27510541", "category": ["\uc74c\uc2dd\uc810 ", " \uce74\ud398 ", " \ucee4\ud53c\uc804\ubb38\uc810"]}, {"name": "\uce74\uce74\uc624\uadf8\ub9b0", "type": "\uce74\ud398", "star": 3.6, "reply": 151, "review": 40, "tvshow": "", "address": "\uc11c\uc6b8 \uc911\uad6c \uba85\ub3d98\uae38 14 3\uce35", "lat": "37.56304543853572", "lng": "126.98451744419015", "url": "https://place.map.kakao.com/m/13010750", "category": ["\uc74c\uc2dd\uc810 ", " \uce74\ud398"]}, {"name": "\ub9c8\ud3ec\ub9c8\ub77c\ud0d5", "type": "\uc911\ud654\uc694\ub9ac", "star": 4.6, "reply": 37, "review": 168, "tvshow": "", "address": "\uc11c\uc6b8 \uc911\uad6c \uba85\ub3d9\uae38 25-7 \uc9c0\ud558 1\uce35", "lat": "37.564140051746044", "lng": "126.98379169215232", "url": "https://place.map.kakao.com/m/2105128763", "category": ["\uc74c\uc2dd\uc810 ", " \uc911\uc2dd ", " \uc911\ud654\uc694\ub9ac"]}, {"name": "\uc740&\uc815\uba85\ub3d9\ub2ed\uac08\ube44", "type": "\ub2ed\uc694\ub9ac", "star": 3.7, "reply": 10, "review": 59, "tvshow": "", "address": "\uc11c\uc6b8 \uc911\uad6c \uba85\ub3d97\uae38 19 2\uce35", "lat": "37.564631604443974", "lng": "126.98422905437646", "url": "https://place.map.kakao.com/m/1542804326", "category": ["\uc74c\uc2dd\uc810 ", " \ud55c\uc2dd ", " \uc721\ub958,\uace0\uae30 ", " \ub2ed\uc694\ub9ac"]}, {"name": "\ub808\uc624\ub2c8\ub2e4\uc2a4 \uba85\ub3d9\uc810", "type": "\ucd08\ucf5c\ub9bf", "star": 4.1, "reply": 19, "review": 44, "tvshow": "", "address": "\uc11c\uc6b8 \uc911\uad6c \uba85\ub3d9\uae38 62 \uc7ac\uc6d0\ube4c\ub529 1\uce35", "lat": "37.5638537954085", "lng": "126.985815521166", "url": "https://place.map.kakao.com/m/11831418", "category": ["\uc74c\uc2dd\uc810 ", " \uac04\uc2dd ", " \ucd08\ucf5c\ub9bf"]}, {"name": "\ud0c0\ub9c8\uace0", "type": "\uc77c\uc2dd\uc9d1", "star": 4.2, "reply": 22, "review": 46, "tvshow": "", "address": "\uc11c\uc6b8 \uc911\uad6c \uc744\uc9c0\ub85c \uc9c0\ud558 88", "lat": "37.566107235454076", "lng": "126.98622597171462", "url": "https://place.map.kakao.com/m/650685922", "category": ["\uc74c\uc2dd\uc810 ", " \uc77c\uc2dd ", " \uc77c\uc2dd\uc9d1"]}, {"name": "\uc774\uc790\uce74\uc57c\ub098\ubb34 \uc885\uac01\uc810", "type": "\uc77c\ubcf8\uc2dd\uc8fc\uc810", "star": 4.0, "reply": 12, "review": 35, "tvshow": "", "address": "\uc11c\uc6b8 \uc885\ub85c\uad6c \uc885\ub85c10\uae38 16 2,3\uce35", "lat": "37.5692956175322", "lng": "126.984288629989", "url": "https://place.map.kakao.com/m/742894106", "category": ["\uc74c\uc2dd\uc810 ", " \uc220\uc9d1 ", " \uc77c\ubcf8\uc2dd\uc8fc\uc810"]}, {"name": "\ub354\ud53c\uc790\ud544", "type": "\ud53c\uc790", "star": 4.4, "reply": 47, "review": 86, "tvshow": "", "address": "\uc11c\uc6b8 \uc885\ub85c\uad6c \uccad\uacc4\ucc9c\ub85c 59 2\uce35", "lat": "37.5689424133837", "lng": "126.984184565908", "url": "https://place.map.kakao.com/m/1397192634", "category": ["\uc74c\uc2dd\uc810 ", " \uc591\uc2dd ", " \ud53c\uc790"]}, {"name": "\ubc18\ucfe4\ucf74 \uc885\uac01\uc810", "type": "\ud0dc\uad6d\uc74c\uc2dd", "star": 4.1, "reply": 24, "review": 92, "tvshow": "", "address": "\uc11c\uc6b8 \uc885\ub85c\uad6c \uc885\ub85c10\uae38 20 3\uce35", "lat": "37.5691478572802", "lng": "126.984311299843", "url": "https://place.map.kakao.com/m/208592301", "category": ["\uc74c\uc2dd\uc810 ", " \uc544\uc2dc\uc544\uc74c\uc2dd ", " \ub3d9\ub0a8\uc544\uc74c\uc2dd ", " \ud0dc\uad6d\uc74c\uc2dd"]}, {"name": "\uc77c\ud3b8\ub4f1\uc2ec", "type": "\uc721\ub958,\uace0\uae30", "star": 4.8, "reply": 10, "review": 140, "tvshow": "", "address": "\uc11c\uc6b8 \uc885\ub85c\uad6c \uc0bc\uc77c\ub300\ub85c17\uae38 51 9\uce35", "lat": "37.5691118609204", "lng": "126.98464183396", "url": "https://place.map.kakao.com/m/916261841", "category": ["\uc74c\uc2dd\uc810 ", " \ud55c\uc2dd ", " \uc721\ub958,\uace0\uae30"]}, {"name": "\ub300\ucc2c\ud69f\uc9d1", "type": "\ud68c", "star": 3.8, "reply": 24, "review": 44, "tvshow": "", "address": "\uc11c\uc6b8 \uc885\ub85c\uad6c \uc6b0\uc815\uad6d\ub85c2\uae38 10 \uc9c0\ud558 1\uce35", "lat": "37.569369402733706", "lng": "126.9835800174258", "url": "https://place.map.kakao.com/m/27491757", "category": ["\uc74c\uc2dd\uc810 ", " \ud55c\uc2dd ", " \ud574\ubb3c,\uc0dd\uc120 ", " \ud68c"]}, {"name": "\ub0a8\ub300\ubb38\ub9c9\ub0b4\ud68c\uc9d1 \uad11\uad50\uc810", "type": "\ud68c", "star": 4.0, "reply": 15, "review": 22, "tvshow": "", "address": "\uc11c\uc6b8 \uc885\ub85c\uad6c \uc6b0\uc815\uad6d\ub85c 4-1", "lat": "37.5691981700457", "lng": "126.983269903017", "url": "https://place.map.kakao.com/m/13272050", "category": ["\uc74c\uc2dd\uc810 ", " \ud55c\uc2dd ", " \ud574\ubb3c,\uc0dd\uc120 ", " \ud68c"]}, {"name": "\ucc9c\uad81\uc804\ub9c8\ub77c\ud0d5", "type": "\uc911\uc2dd", "star": 3.7, "reply": 18, "review": 203, "tvshow": "", "address": "\uc11c\uc6b8 \uc911\uad6c \ub0a8\ub300\ubb38\ub85c 114-1 2\uce35", "lat": "37.56741055816922", "lng": "126.98301449014544", "url": "https://place.map.kakao.com/m/1886771907", "category": ["\uc74c\uc2dd\uc810 ", " \uc911\uc2dd"]}, {"name": "\ub9c8\ucc9c\ub8e8", "type": "\uc77c\uc2dd\uc9d1", "star": 4.1, "reply": 15, "review": 112, "tvshow": "", "address": "\uc11c\uc6b8 \uc885\ub85c\uad6c \uc0bc\uc77c\ub300\ub85c17\uae38 51 9\uce35 901\ud638", "lat": "37.5690974496987", "lng": "126.984678059001", "url": "https://place.map.kakao.com/m/434188958", "category": ["\uc74c\uc2dd\uc810 ", " \uc77c\uc2dd ", " \uc77c\uc2dd\uc9d1"]}, {"name": "\ud574\ubb3c\uc8101978", "type": "\uc2e4\ub0b4\ud3ec\uc7a5\ub9c8\ucc28", "star": 4.8, "reply": 12, "review": 29, "tvshow": "", "address": "\uc11c\uc6b8 \uc885\ub85c\uad6c \uccad\uacc4\ucc9c\ub85c 63-1 1\uce35", "lat": "37.5688163367364", "lng": "126.984660005612", "url": "https://place.map.kakao.com/m/113983461", "category": ["\uc74c\uc2dd\uc810 ", " \uc220\uc9d1 ", " \uc2e4\ub0b4\ud3ec\uc7a5\ub9c8\ucc28"]}, {"name": "\uc6b0\uc721\uba74\uad00 \uccad\uacc4\ucc9c\uc810", "type": "\uc911\uc2dd", "star": 4.5, "reply": 85, "review": 120, "tvshow": "", "address": "\uc11c\uc6b8 \uc885\ub85c\uad6c \uccad\uacc4\ucc9c\ub85c 75-2", "lat": "37.56855522765132", "lng": "126.98611119582282", "url": "https://place.map.kakao.com/m/2143988257", "category": ["\uc74c\uc2dd\uc810 ", " \uc911\uc2dd"]}, {"name": "\uc591\uc5f0\ud654\ub85c \uc885\ub85c\uc9c1\uc601\uc810", "type": "\uc721\ub958,\uace0\uae30", "star": 4.4, "reply": 33, "review": 267, "tvshow": "", "address": "\uc11c\uc6b8 \uc885\ub85c\uad6c \uc0bc\uc77c\ub300\ub85c17\uae38 18", "lat": "37.5692490386235", "lng": "126.986493663517", "url": "https://place.map.kakao.com/m/1619274444", "category": ["\uc74c\uc2dd\uc810 ", " \ud55c\uc2dd ", " \uc721\ub958,\uace0\uae30"]}, {"name": "\uc0e4\uc624\ubc14\uc624\uc6b0\uc721\uba74", "type": "\uc911\ud654\uc694\ub9ac", "star": 3.8, "reply": 109, "review": 276, "tvshow": "tv\uc18c\uac1c", "address": "\uc11c\uc6b8 \uc885\ub85c\uad6c \uc0bc\uc77c\ub300\ub85c17\uae38 15 1\uce35", "lat": "37.5690796664143", "lng": "126.986624999119", "url": "https://place.map.kakao.com/m/2053098478", "category": ["\uc74c\uc2dd\uc810 ", " \uc911\uc2dd ", " \uc911\ud654\uc694\ub9ac"]}, {"name": "\uc885\ub85c\ub3c8\ubd80\ub9ac", "type": "\uc77c\uc2dd\uc9d1", "star": 3.5, "reply": 98, "review": 262, "tvshow": "", "address": "\uc11c\uc6b8 \uc885\ub85c\uad6c \uc0bc\uc77c\ub300\ub85c 385", "lat": "37.5689364838425", "lng": "126.9873109789348", "url": "https://place.map.kakao.com/m/24725107", "category": ["\uc74c\uc2dd\uc810 ", " \uc77c\uc2dd ", " \uc77c\uc2dd\uc9d1"]}, {"name": "VIP\ucc38\uce58 \uc885\ub85c\uc810", "type": "\ucc38\uce58\ud68c", "star": 4.3, "reply": 12, "review": 68, "tvshow": "", "address": "\uc11c\uc6b8 \uc885\ub85c\uad6c \uc0bc\uc77c\ub300\ub85c15\uae38 25 2\uce35", "lat": "37.5687732691183", "lng": "126.986115683078", "url": "https://place.map.kakao.com/m/149543887", "category": ["\uc74c\uc2dd\uc810 ", " \uc77c\uc2dd ", " \ucc38\uce58\ud68c"]}, {"name": "\uc885\ub85c\ubd88\ub3fc\uc9c0", "type": "\uc721\ub958,\uace0\uae30", "star": 3.5, "reply": 54, "review": 219, "tvshow": "tv\uc18c\uac1c", "address": "\uc11c\uc6b8 \uc885\ub85c\uad6c \uccad\uacc4\ucc9c\ub85c 67 \uc885\ub85c1\ubc88\uac00\ube4c\ub529", "lat": "37.5688416208621", "lng": "126.985099191675", "url": "https://place.map.kakao.com/m/17278908", "category": ["\uc74c\uc2dd\uc810 ", " \ud55c\uc2dd ", " \uc721\ub958,\uace0\uae30"]}, {"name": "\ubc18\uc974", "type": "\ucee4\ud53c\uc804\ubb38\uc810", "star": 4.1, "reply": 73, "review": 80, "tvshow": "", "address": "\uc11c\uc6b8 \uc885\ub85c\uad6c \uc0bc\uc77c\ub300\ub85c17\uae38 23 3\uce35", "lat": "37.5690615964593", "lng": "126.986190337567", "url": "https://place.map.kakao.com/m/10405822", "category": ["\uc74c\uc2dd\uc810 ", " \uce74\ud398 ", " \ucee4\ud53c\uc804\ubb38\uc810"]}, {"name": "\ubcf8\uc810 \uc774\uac15\uc21c\uc2e4\ube44\uc9d1", "type": "\ud574\ubb3c,\uc0dd\uc120", "star": 4.0, "reply": 62, "review": 26, "tvshow": "", "address": "\uc11c\uc6b8 \uc885\ub85c\uad6c \uccad\uacc4\ucc9c\ub85c 75-1", "lat": "37.5685786447247", "lng": "126.986036483948", "url": "https://place.map.kakao.com/m/27146280", "category": ["\uc74c\uc2dd\uc810 ", " \ud55c\uc2dd ", " \ud574\ubb3c,\uc0dd\uc120"]}, {"name": "\uc624\ub298\uc640\uc778\ud55c\uc794 \uc885\uac01\uc810", "type": "\uc640\uc778\ubc14", "star": 3.6, "reply": 11, "review": 88, "tvshow": "", "address": "\uc11c\uc6b8 \uc885\ub85c\uad6c \uc885\ub85c14\uae38 30 \uc0bc\uc6d0\ube4c\ub529 1\uce35", "lat": "37.5686544097844", "lng": "126.986742796231", "url": "https://place.map.kakao.com/m/1108892293", "category": ["\uc74c\uc2dd\uc810 ", " \uc220\uc9d1 ", " \uc640\uc778\ubc14"]}, {"name": "\uc885\ub85c\uc591\uaf2c\uce58", "type": "\uc591\uaf2c\uce58", "star": 4.1, "reply": 33, "review": 42, "tvshow": "", "address": "\uc11c\uc6b8 \uc885\ub85c\uad6c \uc0bc\uc77c\ub300\ub85c17\uae38 20-2", "lat": "37.5692958841613", "lng": "126.98643932179", "url": "https://place.map.kakao.com/m/15864091", "category": ["\uc74c\uc2dd\uc810 ", " \uc911\uc2dd ", " \uc591\uaf2c\uce58"]}, {"name": "\uc655\ube44\uc9d1 \uc885\ub85c\uc810", "type": "\uac08\ube44", "star": 4.0, "reply": 32, "review": 38, "tvshow": "", "address": "\uc11c\uc6b8 \uc885\ub85c\uad6c \uc0bc\uc77c\ub300\ub85c15\uae38 24 2\uce35", "lat": "37.5689354565532", "lng": "126.986185833105", "url": "https://place.map.kakao.com/m/15232887", "category": ["\uc74c\uc2dd\uc810 ", " \ud55c\uc2dd ", " \uc721\ub958,\uace0\uae30 ", " \uac08\ube44"]}, {"name": "\ucee8\ud2b8\ub9ac\ub9e8\uc988 \uc885\ub85c\uc810", "type": "\uc591\uc2dd", "star": 3.5, "reply": 19, "review": 101, "tvshow": "", "address": "\uc11c\uc6b8 \uc885\ub85c\uad6c \uccad\uacc4\ucc9c\ub85c 73 2\uce35", "lat": "37.568639894659", "lng": "126.985887057337", "url": "https://place.map.kakao.com/m/27192901", "category": ["\uc74c\uc2dd\uc810 ", " \uc591\uc2dd"]}, {"name": "\ud06c\ub798\ud504\ud2b8\ud55c\uc2a4 \uc885\uac01\uc9c1\uc601\uc810", "type": "\ud638\ud504,\uc694\ub9ac\uc8fc\uc810", "star": 4.6, "reply": 18, "review": 59, "tvshow": "", "address": "\uc11c\uc6b8 \uc885\ub85c\uad6c \uccad\uacc4\ucc9c\ub85c 67 105-1\ud638", "lat": "37.5688308094867", "lng": "126.985103721573", "url": "https://place.map.kakao.com/m/2006803982", "category": ["\uc74c\uc2dd\uc810 ", " \uc220\uc9d1 ", " \ud638\ud504,\uc694\ub9ac\uc8fc\uc810"]}, {"name": "\ucc28\ub3cc\ubc15\ud78c\ucb48\uafb8\ubbf8 \uc885\ub85c\uc810", "type": "\ud574\ubb3c,\uc0dd\uc120", "star": 3.8, "reply": 51, "review": 80, "tvshow": "", "address": "\uc11c\uc6b8 \uc885\ub85c\uad6c \uc0bc\uc77c\ub300\ub85c17\uae38 47-1 2\uce35", "lat": "37.5690830681381", "lng": "126.984945199755", "url": "https://place.map.kakao.com/m/26432860", "category": ["\uc74c\uc2dd\uc810 ", " \ud55c\uc2dd ", " \ud574\ubb3c,\uc0dd\uc120"]}, {"name": "\uace0\uae30\uafbc\uae40\ucd98\ubc30 \uc885\ub85c\uc810", "type": "\uc721\ub958,\uace0\uae30", "star": 4.1, "reply": 16, "review": 135, "tvshow": "", "address": "\uc11c\uc6b8 \uc885\ub85c\uad6c \uc0bc\uc77c\ub300\ub85c17\uae38 17 5\uce35", "lat": "37.569050818571924", "lng": "126.9864846437945", "url": "https://place.map.kakao.com/m/984317343", "category": ["\uc74c\uc2dd\uc810 ", " \ud55c\uc2dd ", " \uc721\ub958,\uace0\uae30"]}, {"name": "\ub764\ub764", "type": "\ubca0\ud2b8\ub0a8\uc74c\uc2dd", "star": 4.6, "reply": 12, "review": 67, "tvshow": "", "address": "\uc11c\uc6b8 \uc911\uad6c \uc744\uc9c0\ub85c5\uae38 26 \ubbf8\ub798\uc5d0\uc14b \uc13c\ud130\uc6d0 \uc9c0\ud558 2\uce35", "lat": "37.56746490147602", "lng": "126.98511531273813", "url": "https://place.map.kakao.com/m/986372636", "category": ["\uc74c\uc2dd\uc810 ", " \uc544\uc2dc\uc544\uc74c\uc2dd ", " \ub3d9\ub0a8\uc544\uc74c\uc2dd ", " \ubca0\ud2b8\ub0a8\uc74c\uc2dd"]}, {"name": "\uc3d8\ud56b\ub9c8\ub77c\ud0d5\ub9c8\ub77c\uc0f9\uad88 1\ud638\uc810", "type": "\uc911\uc2dd", "star": 3.9, "reply": 26, "review": 102, "tvshow": "", "address": "\uc11c\uc6b8 \uc885\ub85c\uad6c \uc0bc\uc77c\ub300\ub85c17\uae38 47-1 \uc9c0\ud558 1\uce35", "lat": "37.5690758607511", "lng": "126.984949728964", "url": "https://place.map.kakao.com/m/785329198", "category": ["\uc74c\uc2dd\uc810 ", " \uc911\uc2dd"]}, {"name": "\ub4f1\ucd0c\uc0e4\ube0c\uce7c\uad6d\uc218 \uc885\ub85c\uc810", "type": "\uc0e4\ube0c\uc0e4\ube0c", "star": 4.1, "reply": 24, "review": 26, "tvshow": "", "address": "\uc11c\uc6b8 \uc885\ub85c\uad6c \uc0bc\uc77c\ub300\ub85c15\uae38 3", "lat": "37.5687625875542", "lng": "126.987272522644", "url": "https://place.map.kakao.com/m/10374829", "category": ["\uc74c\uc2dd\uc810 ", " \uc0e4\ube0c\uc0e4\ube0c ", " \ub4f1\ucd0c\uc0e4\ube0c\uc0e4\ube0c\uce7c\uad6d\uc218"]}, {"name": "\ud55c\uc2e0\ud3ec\ucc28 \uc885\ub85c\uad00\ucca0\uc810", "type": "\uc2e4\ub0b4\ud3ec\uc7a5\ub9c8\ucc28", "star": 3.6, "reply": 10, "review": 31, "tvshow": "", "address": "\uc11c\uc6b8 \uc885\ub85c\uad6c \uc0bc\uc77c\ub300\ub85c17\uae38 40", "lat": "37.569241689688255", "lng": "126.98531304906365", "url": "https://place.map.kakao.com/m/13573326", "category": ["\uc74c\uc2dd\uc810 ", " \uc220\uc9d1 ", " \uc2e4\ub0b4\ud3ec\uc7a5\ub9c8\ucc28 ", " \ud55c\uc2e0\ud3ec\ucc28"]}, {"name": "\uc62c\uc3d8", "type": "\uc721\ub958,\uace0\uae30", "star": 3.8, "reply": 56, "review": 25, "tvshow": "", "address": "\uc11c\uc6b8 \uc885\ub85c\uad6c \uc885\ub85c14\uae38 30 3\uce35", "lat": "37.5686796371526", "lng": "126.986738264024", "url": "https://place.map.kakao.com/m/1790202975", "category": ["\uc74c\uc2dd\uc810 ", " \ud55c\uc2dd ", " \uc721\ub958,\uace0\uae30"]}, {"name": "\uc2a4\ud0c0\ubc85\uc2a4 \uc885\ub85c\uad00\ucca0\uc810", "type": "\ucee4\ud53c\uc804\ubb38\uc810", "star": 4.1, "reply": 11, "review": 20, "tvshow": "", "address": "\uc11c\uc6b8 \uc885\ub85c\uad6c \uc885\ub85c12\uae38 21 2\uce35", "lat": "37.5690868019367", "lng": "126.986000167007", "url": "https://place.map.kakao.com/m/12700362", "category": ["\uc74c\uc2dd\uc810 ", " \uce74\ud398 ", " \ucee4\ud53c\uc804\ubb38\uc810 ", " \uc2a4\ud0c0\ubc85\uc2a4"]}, {"name": "\ub9db\ucc2c\ub4e4\uc655\uc18c\uae08\uad6c\uc774 \uc885\ub85c\uc810", "type": "\uc721\ub958,\uace0\uae30", "star": 3.8, "reply": 12, "review": 35, "tvshow": "", "address": "\uc11c\uc6b8 \uc885\ub85c\uad6c \uc0bc\uc77c\ub300\ub85c17\uae38 35 1~4\uce35", "lat": "37.5691173684296", "lng": "126.98544324661842", "url": "https://place.map.kakao.com/m/1882012148", "category": ["\uc74c\uc2dd\uc810 ", " \ud55c\uc2dd ", " \uc721\ub958,\uace0\uae30 ", " \ub9db\ucc2c\ub4e4\uc655\uc18c\uae08\uad6c\uc774"]}, {"name": "\ub41c\uc7a5\uc608\uc220\uacfc\uc220", "type": "\ud55c\uc2dd", "star": 3.6, "reply": 43, "review": 37, "tvshow": "", "address": "\uc11c\uc6b8 \uc885\ub85c\uad6c \uc0bc\uc77c\ub300\ub85c15\uae38 20-1", "lat": "37.5689318673373", "lng": "126.986312610776", "url": "https://place.map.kakao.com/m/8274707", "category": ["\uc74c\uc2dd\uc810 ", " \ud55c\uc2dd"]}, {"name": "\uacbd\uc591\ud68c\uad00", "type": "\uc591\uc2dd", "star": 4.4, "reply": 81, "review": 84, "tvshow": "", "address": "\uc11c\uc6b8 \uc885\ub85c\uad6c \uc885\ub85c12\uae38 20", "lat": "37.5691047711626", "lng": "126.985579081893", "url": "https://place.map.kakao.com/m/1071727280", "category": ["\uc74c\uc2dd\uc810 ", " \uc591\uc2dd"]}, {"name": "\ubc00\ud06c\ud6401937 \uc885\ub85c\uc810", "type": "\uce74\ud398", "star": 3.9, "reply": 41, "review": 171, "tvshow": "", "address": "\uc11c\uc6b8 \uc885\ub85c\uad6c \uc885\ub85c 86-1", "lat": "37.5699446734844", "lng": "126.987086681225", "url": "https://place.map.kakao.com/m/1711700322", "category": ["\uc74c\uc2dd\uc810 ", " \uce74\ud398"]}, {"name": "\ub974\ube0c\uc640 \uc885\ub85c\uc810", "type": "\uc774\ud0c8\ub9ac\uc548", "star": 3.5, "reply": 26, "review": 108, "tvshow": "", "address": "\uc11c\uc6b8 \uc885\ub85c\uad6c \uc6b0\uc815\uad6d\ub85c2\uae38 42 4\uce35", "lat": "37.56945073117274", "lng": "126.98539790392412", "url": "https://place.map.kakao.com/m/18283622", "category": ["\uc74c\uc2dd\uc810 ", " \uc591\uc2dd ", " \uc774\ud0c8\ub9ac\uc548"]}, {"name": "\uad50\ub300\uc774\uce35\uc9d1 \uc885\ub85c\uc810", "type": "\uc721\ub958,\uace0\uae30", "star": 3.5, "reply": 15, "review": 61, "tvshow": "", "address": "\uc11c\uc6b8 \uc885\ub85c\uad6c \uc0bc\uc77c\ub300\ub85c19\uae38 16 \ub355\ud765\ube4c\ub529 2\uce35", "lat": "37.5696671307848", "lng": "126.986760727915", "url": "https://place.map.kakao.com/m/170372666", "category": ["\uc74c\uc2dd\uc810 ", " \ud55c\uc2dd ", " \uc721\ub958,\uace0\uae30"]}, {"name": "\ucd0c\ub188\uc22f\ubd88\ub2ed\uac08\ube44 \uc885\ub85c\uc810", "type": "\ub2ed\uc694\ub9ac", "star": 4.4, "reply": 27, "review": 122, "tvshow": "tv\uc18c\uac1c", "address": "\uc11c\uc6b8 \uc885\ub85c\uad6c \uc0bc\uc77c\ub300\ub85c19\uae38 6", "lat": "37.5696347492628", "lng": "126.987254263067", "url": "https://place.map.kakao.com/m/1750296031", "category": ["\uc74c\uc2dd\uc810 ", " \ud55c\uc2dd ", " \uc721\ub958,\uace0\uae30 ", " \ub2ed\uc694\ub9ac"]}, {"name": "\ud1a0\ub9ac\uace0\uc57c \uc885\ub85c\uc810", "type": "\uc77c\ubcf8\uc2dd\uc8fc\uc810", "star": 3.6, "reply": 17, "review": 22, "tvshow": "", "address": "\uc11c\uc6b8 \uc885\ub85c\uad6c \uc6b0\uc815\uad6d\ub85c2\uae38 36", "lat": "37.5695067327483", "lng": "126.985075288304", "url": "https://place.map.kakao.com/m/213117891", "category": ["\uc74c\uc2dd\uc810 ", " \uc220\uc9d1 ", " \uc77c\ubcf8\uc2dd\uc8fc\uc810"]}, {"name": "\uc774\ud0dc\ub9ac\ubd80\ub300\ucc0c\uac1c \uc885\uac01\uc5ed\uc810", "type": "\ucc0c\uac1c,\uc804\uace8", "star": 4.3, "reply": 24, "review": 75, "tvshow": "", "address": "\uc11c\uc6b8 \uc885\ub85c\uad6c \uc885\ub85c 77 \ud1b5\uc77c\ube4c\ub529 2\uce35 204\ud638", "lat": "37.570398655708495", "lng": "126.98603727613565", "url": "https://place.map.kakao.com/m/69010464", "category": ["\uc74c\uc2dd\uc810 ", " \ud55c\uc2dd ", " \ucc0c\uac1c,\uc804\uace8"]}, {"name": "\uce74\ud398\ub4dc\ub78c\ube0c\ub974", "type": "\ucee4\ud53c\uc804\ubb38\uc810", "star": 4.0, "reply": 37, "review": 27, "tvshow": "", "address": "\uc11c\uc6b8 \uc885\ub85c\uad6c \uc885\ub85c 80 2\uce35", "lat": "37.5699517873798", "lng": "126.986253562581", "url": "https://place.map.kakao.com/m/14578875", "category": ["\uc74c\uc2dd\uc810 ", " \uce74\ud398 ", " \ucee4\ud53c\uc804\ubb38\uc810"]}, {"name": "\uacbd\uc131\uc591\uaf2c\uce58 \uc885\ub85c\uc9c1\uc601\uc810", "type": "\uc591\uaf2c\uce58", "star": 4.3, "reply": 40, "review": 35, "tvshow": "", "address": "\uc11c\uc6b8 \uc885\ub85c\uad6c \uc0bc\uc77c\ub300\ub85c17\uae38 42-6", "lat": "37.569432689290224", "lng": "126.98522132400247", "url": "https://place.map.kakao.com/m/13266460", "category": ["\uc74c\uc2dd\uc810 ", " \uc911\uc2dd ", " \uc591\uaf2c\uce58 ", " \uacbd\uc131\uc591\uaf2c\uce58"]}, {"name": "\ub5bc\uc544\ub5bc\ubca0\ub124", "type": "\uc774\ud0c8\ub9ac\uc548", "star": 4.1, "reply": 30, "review": 48, "tvshow": "", "address": "\uc11c\uc6b8 \uc885\ub85c\uad6c \uc885\ub85c12\uae38 7 \uc9c0\ud5581\uce35", "lat": "37.5696994686332", "lng": "126.985914024196", "url": "https://place.map.kakao.com/m/13727562", "category": ["\uc74c\uc2dd\uc810 ", " \uc591\uc2dd ", " \uc774\ud0c8\ub9ac\uc548"]}, {"name": "\ubc14\ub978\uce58\ud0a8 \uc885\uac01\uc5ed\uc810", "type": "\uce58\ud0a8", "star": 4.8, "reply": 17, "review": 25, "tvshow": "", "address": "\uc11c\uc6b8 \uc885\ub85c\uad6c \uc778\uc0ac\ub3d93\uae38 35 1\uce35", "lat": "37.5714905340379", "lng": "126.984994522129", "url": "https://place.map.kakao.com/m/2036009778", "category": ["\uc74c\uc2dd\uc810 ", " \uce58\ud0a8 ", " \ubc14\ub978\uce58\ud0a8"]}, {"name": "\ud3f4\ub8e8\uc774\ud2b8", "type": "\uce74\ud398", "star": 4.3, "reply": 12, "review": 31, "tvshow": "", "address": "\uc11c\uc6b8 \uc885\ub85c\uad6c \uc6b0\uc815\uad6d\ub85c2\uae38 41 3\uce35", "lat": "37.5696633666606", "lng": "126.985402390207", "url": "https://place.map.kakao.com/m/1499522186", "category": ["\uc74c\uc2dd\uc810 ", " \uce74\ud398"]}, {"name": "\uc885\ub85c\uc77c\ubc88\uc9c0 \uc885\ub85c\uc810", "type": "\ud638\ud504,\uc694\ub9ac\uc8fc\uc810", "star": 3.5, "reply": 17, "review": 21, "tvshow": "", "address": "\uc11c\uc6b8 \uc885\ub85c\uad6c \uc885\ub85c11\uae38 15", "lat": "37.5709932580378", "lng": "126.985583245656", "url": "https://place.map.kakao.com/m/12898390", "category": ["\uc74c\uc2dd\uc810 ", " \uc220\uc9d1 ", " \ud638\ud504,\uc694\ub9ac\uc8fc\uc810"]}, {"name": "\ub780\uce74\ud558\uc6b0\uc2a4", "type": "\uce75\ud14c\uc77c\ubc14", "star": 4.1, "reply": 20, "review": 79, "tvshow": "", "address": "\uc11c\uc6b8 \uc885\ub85c\uad6c \uc0bc\uc77c\ub300\ub85c19\uae38 16", "lat": "37.5696563183315", "lng": "126.986756202034", "url": "https://place.map.kakao.com/m/27438961", "category": ["\uc74c\uc2dd\uc810 ", " \uc220\uc9d1 ", " \uce75\ud14c\uc77c\ubc14"]}, {"name": "\ubbf8\ub3c4\uc778 \uc885\ub85c\uc810", "type": "\uc591\uc2dd", "star": 4.3, "reply": 70, "review": 172, "tvshow": "", "address": "\uc11c\uc6b8 \uc885\ub85c\uad6c \uc885\ub85c 51 \uc9c0\ud558 2\uce35", "lat": "37.57075514147479", "lng": "126.98363631146927", "url": "https://place.map.kakao.com/m/1948528961", "category": ["\uc74c\uc2dd\uc810 ", " \uc591\uc2dd"]}, {"name": "\uacb0", "type": "\uce74\ud398", "star": 4.2, "reply": 36, "review": 98, "tvshow": "", "address": "\uc11c\uc6b8 \uc885\ub85c\uad6c \uc6b0\uc815\uad6d\ub85c 26 \uc13c\ud2b8\ub85c\ud3f4\ub9ac\uc2a4 1\uce35", "lat": "37.57149756466348", "lng": "126.98365878856444", "url": "https://place.map.kakao.com/m/517442171", "category": ["\uc74c\uc2dd\uc810 ", " \uce74\ud398"]}, {"name": "\ubc14\ube44\ub808\ub4dc \uc885\ub85c\uc810", "type": "\uc591\uc2dd", "star": 4.7, "reply": 216, "review": 493, "tvshow": "", "address": "\uc11c\uc6b8 \uc885\ub85c\uad6c \uc885\ub85c 51 \uc885\ub85c\ud0c0\uc6cc \uc9c0\ud5582\uce35 211\ud638", "lat": "37.5707407230387", "lng": "126.983618203185", "url": "https://place.map.kakao.com/m/2040083334", "category": ["\uc74c\uc2dd\uc810 ", " \uc591\uc2dd"]}, {"name": "\ubbf8\uce5c\ub2ed \uc885\uac01\ubcf8\uc810", "type": "\uce58\ud0a8", "star": 3.6, "reply": 23, "review": 65, "tvshow": "tv\uc18c\uac1c", "address": "\uc11c\uc6b8 \uc885\ub85c\uad6c \uc6b0\uc815\uad6d\ub85c2\uae38 16 1\uce35", "lat": "37.5694541415083", "lng": "126.983908263011", "url": "https://place.map.kakao.com/m/26884480", "category": ["\uc74c\uc2dd\uc810 ", " \uce58\ud0a8"]}, {"name": "\uc2a4\ud0c0\ubc85\uc2a4 \ub354\uc885\ub85cR\uc810", "type": "\ucee4\ud53c\uc804\ubb38\uc810", "star": 4.2, "reply": 57, "review": 195, "tvshow": "", "address": "\uc11c\uc6b8 \uc885\ub85c\uad6c \uc885\ub85c 51", "lat": "37.57083628800682", "lng": "126.98339892036326", "url": "https://place.map.kakao.com/m/1784996243", "category": ["\uc74c\uc2dd\uc810 ", " \uce74\ud398 ", " \ucee4\ud53c\uc804\ubb38\uc810 ", " \uc2a4\ud0c0\ubc85\uc2a4"]}, {"name": "\uc11c\uc6b8\uc0c1\ud68c", "type": "\uce74\ud398", "star": 3.9, "reply": 12, "review": 78, "tvshow": "", "address": "\uc11c\uc6b8 \uc885\ub85c\uad6c \uc6b0\uc815\uad6d\ub85c2\uae38 17 3\uce35", "lat": "37.569636163472815", "lng": "126.98406216881071", "url": "https://place.map.kakao.com/m/716586132", "category": ["\uc74c\uc2dd\uc810 ", " \uce74\ud398"]}, {"name": "\uc721\ubbf8", "type": "\uc220\uc9d1", "star": 3.9, "reply": 30, "review": 29, "tvshow": "", "address": "\uc11c\uc6b8 \uc885\ub85c\uad6c \uc885\ub85c9\uae38 18", "lat": "37.57097148690999", "lng": "126.98442411416988", "url": "https://place.map.kakao.com/m/27008882", "category": ["\uc74c\uc2dd\uc810 ", " \uc220\uc9d1"]}, {"name": "\ud55c\uc131\uc591\uaf2c\uce58 \uc885\uac01\uc810", "type": "\uc591\uaf2c\uce58", "star": 3.5, "reply": 17, "review": 169, "tvshow": "", "address": "\uc11c\uc6b8 \uc885\ub85c\uad6c \uc6b0\uc815\uad6d\ub85c2\uae38 21 1\uce35", "lat": "37.56970286627529", "lng": "126.98427948885164", "url": "https://place.map.kakao.com/m/24578345", "category": ["\uc74c\uc2dd\uc810 ", " \uc911\uc2dd ", " \uc591\uaf2c\uce58"]}, {"name": "\uc2a4\ud0c0\ubc85\uc2a4 \uc885\uac01\uc810", "type": "\ucee4\ud53c\uc804\ubb38\uc810", "star": 4.2, "reply": 39, "review": 26, "tvshow": "", "address": "\uc11c\uc6b8 \uc885\ub85c\uad6c \uc885\ub85c 64", "lat": "37.5700056389639", "lng": "126.984569205394", "url": "https://place.map.kakao.com/m/8405079", "category": ["\uc74c\uc2dd\uc810 ", " \uce74\ud398 ", " \ucee4\ud53c\uc804\ubb38\uc810 ", " \uc2a4\ud0c0\ubc85\uc2a4"]}, {"name": "\uc870\uc120\ud654\ub85c\uc9d1 \uc885\uac01\uc810", "type": "\uc721\ub958,\uace0\uae30", "star": 3.8, "reply": 11, "review": 34, "tvshow": "", "address": "\uc11c\uc6b8 \uc885\ub85c\uad6c \uc6b0\uc815\uad6d\ub85c2\uae38 21 \ub300\uc655\ube4c\ub529 2\uce35", "lat": "37.5697028662753", "lng": "126.984279488852", "url": "https://place.map.kakao.com/m/770430967", "category": ["\uc74c\uc2dd\uc810 ", " \ud55c\uc2dd ", " \uc721\ub958,\uace0\uae30"]}, {"name": "\uce74\ud398\uc885\ub85c\uc2dc\uc7a5", "type": "\uce74\ud398", "star": 4.1, "reply": 19, "review": 76, "tvshow": "", "address": "\uc11c\uc6b8 \uc885\ub85c\uad6c \uc6b0\uc815\uad6d\ub85c2\uae38 10 1\uce35", "lat": "37.56939643731619", "lng": "126.98361396982905", "url": "https://place.map.kakao.com/m/2066672094", "category": ["\uc74c\uc2dd\uc810 ", " \uce74\ud398"]}, {"name": "\uac15\ucd0c\uc22f\ubd88\ub2ed\uac08\ube44", "type": "\ub2ed\uc694\ub9ac", "star": 3.6, "reply": 10, "review": 26, "tvshow": "", "address": "\uc11c\uc6b8 \uc885\ub85c\uad6c \uc885\ub85c9\uae38 18", "lat": "37.5710075427857", "lng": "126.984546359312", "url": "https://place.map.kakao.com/m/1227929570", "category": ["\uc74c\uc2dd\uc810 ", " \ud55c\uc2dd ", " \uc721\ub958,\uace0\uae30 ", " \ub2ed\uc694\ub9ac"]}, {"name": "\ud3ec\ube0c\ub77c\ub354\uc2a4 \uc885\ub85c\uc810", "type": "\ub3d9\ub0a8\uc544\uc74c\uc2dd", "star": 4.2, "reply": 36, "review": 79, "tvshow": "", "address": "\uc11c\uc6b8 \uc885\ub85c\uad6c \uc885\ub85c 51 \uc885\ub85c\ud0c0\uc6cc \uc9c0\ud558 2\uce35 210\ud638", "lat": "37.5707515305796", "lng": "126.983586505794", "url": "https://place.map.kakao.com/m/351137763", "category": ["\uc74c\uc2dd\uc810 ", " \uc544\uc2dc\uc544\uc74c\uc2dd ", " \ub3d9\ub0a8\uc544\uc74c\uc2dd"]}, {"name": "\uae4c\uce58\ud654\ubc29 \uc885\ub85c\uc810", "type": "\ud14c\ub9c8\uce74\ud398", "star": 3.7, "reply": 17, "review": 136, "tvshow": "", "address": "\uc11c\uc6b8 \uc885\ub85c\uad6c \uc885\ub85c 51 \uc885\ub85c\ud0c0\uc6cc 1\uce35", "lat": "37.57066144016188", "lng": "126.98365217946193", "url": "https://place.map.kakao.com/m/1408419754", "category": ["\uc74c\uc2dd\uc810 ", " \uce74\ud398 ", " \ud14c\ub9c8\uce74\ud398"]}, {"name": "\uc694\uac70\ud2b8\ub9e8 \uc885\ub85c\uc11c\uc801\uc810", "type": "\uce74\ud398", "star": 4.3, "reply": 15, "review": 63, "tvshow": "", "address": "\uc11c\uc6b8 \uc885\ub85c\uad6c \uc885\ub85c 51 \uc885\ub85c\ud0c0\uc6cc \uc9c0\ud558 2\uce35", "lat": "37.5707659584333", "lng": "126.983672531993", "url": "https://place.map.kakao.com/m/438210383", "category": ["\uc74c\uc2dd\uc810 ", " \uce74\ud398"]}, {"name": "\ub529\ub5241968 \uc885\ub85c\uc13c\ud2b8\ub85c\ud3f4\ub9ac\uc2a4\uc810", "type": "\uc911\ud654\uc694\ub9ac", "star": 4.3, "reply": 16, "review": 33, "tvshow": "", "address": "\uc11c\uc6b8 \uc885\ub85c\uad6c \uc6b0\uc815\uad6d\ub85c 26", "lat": "37.571501167390245", "lng": "126.98364973196564", "url": "https://place.map.kakao.com/m/3003784", "category": ["\uc74c\uc2dd\uc810 ", " \uc911\uc2dd ", " \uc911\ud654\uc694\ub9ac"]}, {"name": "\uc5d0\uba38\uc774 \uc885\ub85c1\ud638\uc810", "type": "\ubca0\ud2b8\ub0a8\uc74c\uc2dd", "star": 3.8, "reply": 116, "review": 48, "tvshow": "", "address": "\uc11c\uc6b8 \uc885\ub85c\uad6c \uc885\ub85c12\uae38 6-20 1\uce35", "lat": "37.56980742706504", "lng": "126.98462357992553", "url": "https://place.map.kakao.com/m/26921863", "category": ["\uc74c\uc2dd\uc810 ", " \uc544\uc2dc\uc544\uc74c\uc2dd ", " \ub3d9\ub0a8\uc544\uc74c\uc2dd ", " \ubca0\ud2b8\ub0a8\uc74c\uc2dd ", " \uc5d0\uba38\uc774"]}, {"name": "\ub3c8\uc874\ucc38\ub098\ubb34\uc7a5\uc791\uad6c\uc774", "type": "\uc721\ub958,\uace0\uae30", "star": 4.4, "reply": 13, "review": 59, "tvshow": "", "address": "\uc11c\uc6b8 \uc885\ub85c\uad6c \uc885\ub85c9\uae38 8", "lat": "37.5705858350879", "lng": "126.984229496914", "url": "https://place.map.kakao.com/m/7833853", "category": ["\uc74c\uc2dd\uc810 ", " \ud55c\uc2dd ", " \uc721\ub958,\uace0\uae30"]}, {"name": "\ub354\ud14c\uc774\ube14", "type": "\ud638\ud504,\uc694\ub9ac\uc8fc\uc810", "star": 3.9, "reply": 23, "review": 20, "tvshow": "", "address": "\uc11c\uc6b8 \uc885\ub85c\uad6c \uc6b0\uc815\uad6d\ub85c2\uae38 21", "lat": "37.5697353003011", "lng": "126.984265898638", "url": "https://place.map.kakao.com/m/16989223", "category": ["\uc74c\uc2dd\uc810 ", " \uc220\uc9d1 ", " \ud638\ud504,\uc694\ub9ac\uc8fc\uc810"]}, {"name": "\ub354\ud38d\ube0c\ub85c\uc2a4", "type": "\ud638\ud504,\uc694\ub9ac\uc8fc\uc810", "star": 4.0, "reply": 13, "review": 35, "tvshow": "", "address": "\uc11c\uc6b8 \uc885\ub85c\uad6c \uc885\ub85c10\uae38 13 1\uce35", "lat": "37.5694974775447", "lng": "126.984569310229", "url": "https://place.map.kakao.com/m/26489157", "category": ["\uc74c\uc2dd\uc810 ", " \uc220\uc9d1 ", " \ud638\ud504,\uc694\ub9ac\uc8fc\uc810"]}, {"name": "\ub9c8\ucd78\ub9c8\ub77c", "type": "\uc911\uc2dd", "star": 4.6, "reply": 18, "review": 23, "tvshow": "", "address": "\uc11c\uc6b8 \uc885\ub85c\uad6c \uc885\ub85c8\uae38 5", "lat": "37.569764108488265", "lng": "126.98408930835197", "url": "https://place.map.kakao.com/m/784017080", "category": ["\uc74c\uc2dd\uc810 ", " \uc911\uc2dd"]}, {"name": "\ud06c\ub9ac\uc2a4\ud0c8\ub4dc\ub798\uace4", "type": "\uc911\ud654\uc694\ub9ac", "star": 3.9, "reply": 11, "review": 49, "tvshow": "", "address": "\uc11c\uc6b8 \uc885\ub85c\uad6c \uc885\ub85c 51", "lat": "37.570474058391184", "lng": "126.98383559808538", "url": "https://place.map.kakao.com/m/1290396038", "category": ["\uc74c\uc2dd\uc810 ", " \uc911\uc2dd ", " \uc911\ud654\uc694\ub9ac"]}, {"name": "\uc6b0\uc2a4\uc2dc\uac8c", "type": "\ucd08\ubc25,\ub864", "star": 4.1, "reply": 15, "review": 20, "tvshow": "", "address": "\uc11c\uc6b8 \uc885\ub85c\uad6c \uc885\ub85c8\uae38 13 2\uce35", "lat": "37.56947218779477", "lng": "126.98410295379763", "url": "https://place.map.kakao.com/m/25810341", "category": ["\uc74c\uc2dd\uc810 ", " \uc77c\uc2dd ", " \ucd08\ubc25,\ub864"]}, {"name": "\ub514\ub77c\uc774\ud504\uc2a4\ud0c0\uc77c\ud0a4\uce5c", "type": "\uc591\uc2dd", "star": 3.6, "reply": 44, "review": 348, "tvshow": "tv\uc18c\uac1c", "address": "\uc11c\uc6b8 \uc911\uad6c \uc138\uc885\ub300\ub85c 136 \ud30c\uc774\ub0b8\uc2a4\ube4c\ub529 \uc9c0\ud5581\uce35 101A\ud638", "lat": "37.5684224971952", "lng": "126.978257891095", "url": "https://place.map.kakao.com/m/444516464", "category": ["\uc74c\uc2dd\uc810 ", " \uc591\uc2dd"]}, {"name": "\ub9c8\ub974\uc140 \uad11\ud654\ubb38\uc810", "type": "\uc774\ud0c8\ub9ac\uc548", "star": 3.9, "reply": 14, "review": 107, "tvshow": "", "address": "\uc11c\uc6b8 \uc911\uad6c \uccad\uacc4\ucc9c\ub85c 8 1\uce35", "lat": "37.56882613653158", "lng": "126.97822155181746", "url": "https://place.map.kakao.com/m/981723388", "category": ["\uc74c\uc2dd\uc810 ", " \uc591\uc2dd ", " \uc774\ud0c8\ub9ac\uc548"]}, {"name": "\ubd93\ucc98\uc2a4\ucef7 \uad11\ud654\ubb38\uc810", "type": "\uc2a4\ud14c\uc774\ud06c,\ub9bd", "star": 3.6, "reply": 88, "review": 94, "tvshow": "", "address": "\uc11c\uc6b8 \uc911\uad6c \uc138\uc885\ub300\ub85c 136 \uc11c\uc6b8\ud30c\uc774\ub0b8\uc2a4\uc13c\ud130 \uc9c0\ud5582\uce35", "lat": "37.5683108762075", "lng": "126.97882162376568", "url": "https://place.map.kakao.com/m/18274189", "category": ["\uc74c\uc2dd\uc810 ", " \uc591\uc2dd ", " \uc2a4\ud14c\uc774\ud06c,\ub9bd"]}, {"name": "\uc624\ub5c4\ub450\uc2a4", "type": "\uc81c\uacfc,\ubca0\uc774\ucee4\ub9ac", "star": 3.6, "reply": 123, "review": 73, "tvshow": "", "address": "\uc11c\uc6b8 \uc911\uad6c \uc138\uc885\ub300\ub85c 136 \ud30c\uc774\ub0b8\uc2a4 \ube4c\ub529 \uc9c0\ud5582\uce35", "lat": "37.5684296993188", "lng": "126.978226194962", "url": "https://place.map.kakao.com/m/19239022", "category": ["\uc74c\uc2dd\uc810 ", " \uac04\uc2dd ", " \uc81c\uacfc,\ubca0\uc774\ucee4\ub9ac"]}, {"name": "\ud22c\ubfd4\ub4f1\uc2ec \uad11\ud654\ubb38\uc810", "type": "\uc721\ub958,\uace0\uae30", "star": 4.0, "reply": 17, "review": 23, "tvshow": "", "address": "\uc11c\uc6b8 \uc911\uad6c \uc138\uc885\ub300\ub85c 136 \uc11c\uc6b8\ud30c\uc774\ub0b8\uc2a4\uc13c\ud130 SFC \uc9c0\ud5581\uce35", "lat": "37.56842600499118", "lng": "126.97774173003772", "url": "https://place.map.kakao.com/m/25778922", "category": ["\uc74c\uc2dd\uc810 ", " \ud55c\uc2dd ", " \uc721\ub958,\uace0\uae30"]}, {"name": "\ub2e4\ub9cc\ud504\ub808\ub974 SFC\uc810", "type": "\uce74\ud398", "star": 4.1, "reply": 18, "review": 64, "tvshow": "", "address": "\uc11c\uc6b8 \uc911\uad6c \uc138\uc885\ub300\ub85c 136 \uc11c\uc6b8\ud30c\uc774\ub0b8\uc2a4\uc13c\ud130 \uc9c0\ud5581\uce35 107\ud638", "lat": "37.56840358128757", "lng": "126.97828506290259", "url": "https://place.map.kakao.com/m/27470558", "category": ["\uc74c\uc2dd\uc810 ", " \uce74\ud398"]}, {"name": "\ud3f4\ubc14\uc14b \ucf54\ub9ac\uc544\ub098\ud638\ud154\uc810", "type": "\ucee4\ud53c\uc804\ubb38\uc810", "star": 3.7, "reply": 36, "review": 27, "tvshow": "", "address": "\uc11c\uc6b8 \uc911\uad6c \uc138\uc885\ub300\ub85c 135 \ucf54\ub9ac\uc544\ub098\ud638\ud154 1\uce35", "lat": "37.5680158584221", "lng": "126.97673783576289", "url": "https://place.map.kakao.com/m/19338551", "category": ["\uc74c\uc2dd\uc810 ", " \uce74\ud398 ", " \ucee4\ud53c\uc804\ubb38\uc810 ", " \ud3f4\ubc14\uc14b"]}, {"name": "\uc5d8\uc060\ub77c\ub610 \uad11\ud654\ubb38\uc810", "type": "\uc591\uc2dd", "star": 3.6, "reply": 37, "review": 37, "tvshow": "", "address": "\uc11c\uc6b8 \uc911\uad6c \uc138\uc885\ub300\ub85c 136 \uc11c\uc6b8\ud30c\uc774\ub0b8\uc2a4\uc13c\ud130 \uc9c0\ud5582\uce35", "lat": "37.5684404718264", "lng": "126.978013388963", "url": "https://place.map.kakao.com/m/21242448", "category": ["\uc74c\uc2dd\uc810 ", " \uc591\uc2dd"]}, {"name": "\uc0dd\uc5b4\uac70\uc2a4\ud2f4 \uc11c\uc6b8\ud30c\uc774\ub128\uc2a4\uc810", "type": "\ub3d9\ub0a8\uc544\uc74c\uc2dd", "star": 3.7, "reply": 50, "review": 60, "tvshow": "tv\uc18c\uac1c", "address": "\uc11c\uc6b8 \uc911\uad6c \uc138\uc885\ub300\ub85c 136 \uc11c\uc6b8\ud30c\uc774\ub0b8\uc2a4\ube4c\ub529 \uc9c0\ud5581\uce35", "lat": "37.56842600499118", "lng": "126.97774173003772", "url": "https://place.map.kakao.com/m/19895957", "category": ["\uc74c\uc2dd\uc810 ", " \uc544\uc2dc\uc544\uc74c\uc2dd ", " \ub3d9\ub0a8\uc544\uc74c\uc2dd ", " \uc0dd\uc5b4\uac70\uc2a4\ud2f4"]}, {"name": "\ub808\ub354\ub77c SFC\uc810", "type": "\ucd08\ucf5c\ub9bf", "star": 3.7, "reply": 39, "review": 33, "tvshow": "", "address": "\uc11c\uc6b8 \uc911\uad6c \uc138\uc885\ub300\ub85c 136 \uc11c\uc6b8\ud30c\uc774\ub0b8\uc2a4\uc13c\ud0c0 \uc9c0\ud5581\uce35", "lat": "37.56840092713372", "lng": "126.97855219904167", "url": "https://place.map.kakao.com/m/16500259", "category": ["\uc74c\uc2dd\uc810 ", " \uac04\uc2dd ", " \ucd08\ucf5c\ub9bf"]}, {"name": "\ub0a8\ud3ec\uba74\uc625", "type": "\ub0c9\uba74", "star": 3.5, "reply": 448, "review": 246, "tvshow": "", "address": "\uc11c\uc6b8 \uc911\uad6c \uc744\uc9c0\ub85c3\uae38 24", "lat": "37.5671652991647", "lng": "126.981753597164", "url": "https://place.map.kakao.com/m/21232315", "category": ["\uc74c\uc2dd\uc810 ", " \ud55c\uc2dd ", " \ub0c9\uba74"]}, {"name": "\ubd80\ubbfc\uc625", "type": "\ud55c\uc2dd", "star": 3.5, "reply": 124, "review": 88, "tvshow": "", "address": "\uc11c\uc6b8 \uc911\uad6c \ub2e4\ub3d9\uae38 24-12", "lat": "37.5675038430283", "lng": "126.98031824515", "url": "https://place.map.kakao.com/m/1346301870", "category": ["\uc74c\uc2dd\uc810 ", " \ud55c\uc2dd"]}, {"name": "\ucda9\ubb34\uc9d1", "type": "\ud574\ubb3c,\uc0dd\uc120", "star": 3.5, "reply": 86, "review": 78, "tvshow": "tv\uc18c\uac1c", "address": "\uc11c\uc6b8 \uc911\uad6c \uc744\uc9c0\ub85c3\uae38 30-14 1\uce35", "lat": "37.5673779751551", "lng": "126.982020677003", "url": "https://place.map.kakao.com/m/781644913", "category": ["\uc74c\uc2dd\uc810 ", " \ud55c\uc2dd ", " \ud574\ubb3c,\uc0dd\uc120"]}, {"name": "\ubb34\uad50\ub3d9\ubd81\uc5b4\uad6d\uc9d1", "type": "\ud574\ubb3c,\uc0dd\uc120", "star": 4.2, "reply": 245, "review": 122, "tvshow": "", "address": "\uc11c\uc6b8 \uc911\uad6c \uc744\uc9c0\ub85c1\uae38 38", "lat": "37.56773441926809", "lng": "126.9798518336699", "url": "https://place.map.kakao.com/m/11064200", "category": ["\uc74c\uc2dd\uc810 ", " \ud55c\uc2dd ", " \ud574\ubb3c,\uc0dd\uc120"]}, {"name": "\uc6a9\uae08\uc625", "type": "\ucd94\uc5b4", "star": 3.9, "reply": 95, "review": 69, "tvshow": "tv\uc18c\uac1c", "address": "\uc11c\uc6b8 \uc911\uad6c \ub2e4\ub3d9\uae38 24-2", "lat": "37.56766244982672", "lng": "126.98050836570161", "url": "https://place.map.kakao.com/m/10703052", "category": ["\uc74c\uc2dd\uc810 ", " \ud55c\uc2dd ", " \ud574\ubb3c,\uc0dd\uc120 ", " \ucd94\uc5b4"]}, {"name": "\ubc14\uc2a4\ubc84\uac70 \uad11\ud654\ubb38\uc810", "type": "\ud584\ubc84\uac70", "star": 3.8, "reply": 58, "review": 117, "tvshow": "", "address": "\uc11c\uc6b8 \uc911\uad6c \ub2e4\ub3d9\uae38 5 \uad11\uc77c\ube4c\ub529 \uc9c0\ud558 1\uce35", "lat": "37.56811281224917", "lng": "126.97970458147569", "url": "https://place.map.kakao.com/m/26608740", "category": ["\uc74c\uc2dd\uc810 ", " \uc591\uc2dd ", " \ud584\ubc84\uac70"]}, {"name": "\uccad\ud0a4\uba74\uac00 \ubb34\uad50\uc810", "type": "\uc911\uc2dd", "star": 3.7, "reply": 81, "review": 105, "tvshow": "", "address": "\uc11c\uc6b8 \uc911\uad6c \ub2e4\ub3d9\uae38 33 \ud6a8\uad11\ube4c\ub529 1\uce35", "lat": "37.5679905137668", "lng": "126.981133101889", "url": "https://place.map.kakao.com/m/23966819", "category": ["\uc74c\uc2dd\uc810 ", " \uc911\uc2dd"]}, {"name": "\ud669\uc18c\ub9c9\ucc3d", "type": "\uacf1\ucc3d,\ub9c9\ucc3d", "star": 4.5, "reply": 15, "review": 64, "tvshow": "", "address": "\uc11c\uc6b8 \uc911\uad6c \uccad\uacc4\ucc9c\ub85c 30", "lat": "37.5685166353015", "lng": "126.980761695725", "url": "https://place.map.kakao.com/m/15769405", "category": ["\uc74c\uc2dd\uc810 ", " \ud55c\uc2dd ", " \uc721\ub958,\uace0\uae30 ", " \uacf1\ucc3d,\ub9c9\ucc3d"]}, {"name": "\uc601\ub355\ud68c\uc2dd\ub2f9", "type": "\ud68c", "star": 3.7, "reply": 16, "review": 36, "tvshow": "tv\uc18c\uac1c", "address": "\uc11c\uc6b8 \uc911\uad6c \ubb34\uad50\ub85c 32 \ud6a8\ub839\ube4c\ub529 \uc9c0\ud5581\uce35", "lat": "37.5687651100268", "lng": "126.979570836153", "url": "https://place.map.kakao.com/m/12447947", "category": ["\uc74c\uc2dd\uc810 ", " \ud55c\uc2dd ", " \ud574\ubb3c,\uc0dd\uc120 ", " \ud68c"]}, {"name": "\uacf0\uad6d\uc2dc\uc9d1", "type": "\uad6d\uc218", "star": 3.6, "reply": 107, "review": 39, "tvshow": "tv\uc18c\uac1c", "address": "\uc11c\uc6b8 \uc911\uad6c \ubb34\uad50\ub85c 24", "lat": "37.5680587035237", "lng": "126.979421615069", "url": "https://place.map.kakao.com/m/13288123", "category": ["\uc74c\uc2dd\uc810 ", " \ud55c\uc2dd ", " \uad6d\uc218"]}, {"name": "\ud0dd\uc774\ub124\uc870\uac1c\uc804\uace8 \ubb34\uad50\ub3d9\uc810", "type": "\uc870\uac1c", "star": 4.5, "reply": 11, "review": 61, "tvshow": "", "address": "\uc11c\uc6b8 \uc911\uad6c \ub2e4\ub3d9\uae38 24-4 1\uce35", "lat": "37.5675795567241", "lng": "126.980499331965", "url": "https://place.map.kakao.com/m/1307820234", "category": ["\uc74c\uc2dd\uc810 ", " \ud55c\uc2dd ", " \ud574\ubb3c,\uc0dd\uc120 ", " \uc870\uac1c"]}, {"name": "\ub300\uc6d0\uc9d1", "type": "\uc721\ub958,\uace0\uae30", "star": 3.9, "reply": 18, "review": 29, "tvshow": "", "address": "\uc11c\uc6b8 \uc911\uad6c \uc744\uc9c0\ub85c3\uae38 30-4", "lat": "37.567399544743", "lng": "126.981667514532", "url": "https://place.map.kakao.com/m/10230288", "category": ["\uc74c\uc2dd\uc810 ", " \ud55c\uc2dd ", " \uc721\ub958,\uace0\uae30"]}, {"name": "\ucca0\ucca0\ubcf5\uc9d1", "type": "\ubcf5\uc5b4", "star": 4.2, "reply": 42, "review": 32, "tvshow": "", "address": "\uc11c\uc6b8 \uc911\uad6c \uc744\uc9c0\ub85c3\uae38 29", "lat": "37.5672985721106", "lng": "126.981278161257", "url": "https://place.map.kakao.com/m/16268305", "category": ["\uc74c\uc2dd\uc810 ", " \ud55c\uc2dd ", " \ud574\ubb3c,\uc0dd\uc120 ", " \ubcf5\uc5b4"]}, {"name": "\uac00\ucbd4\uc57c", "type": "\ub3c8\uae4c\uc2a4,\uc6b0\ub3d9", "star": 3.8, "reply": 21, "review": 27, "tvshow": "", "address": "\uc11c\uc6b8 \uc911\uad6c \ub2e4\ub3d9\uae38 46 \ub3d9\uad6d\uc0b0\uc5c5\ube4c\ub529 1\uce35", "lat": "37.56782479992852", "lng": "126.9815723289626", "url": "https://place.map.kakao.com/m/8138069", "category": ["\uc74c\uc2dd\uc810 ", " \uc77c\uc2dd ", " \ub3c8\uae4c\uc2a4,\uc6b0\ub3d9"]}, {"name": "\uc0b0\ubd88\ub4f1\uc2ec", "type": "\uc721\ub958,\uace0\uae30", "star": 3.6, "reply": 33, "review": 22, "tvshow": "", "address": "\uc11c\uc6b8 \uc911\uad6c \uc744\uc9c0\ub85c3\uae38 30", "lat": "37.56743826213824", "lng": "126.98150450928838", "url": "https://place.map.kakao.com/m/12448101", "category": ["\uc74c\uc2dd\uc810 ", " \ud55c\uc2dd ", " \uc721\ub958,\uace0\uae30"]}, {"name": "\ud53c\uc288\ub9c8\ub77c\ud64d\ud0d5 \uc11c\uc6b8\uc2dc\uccad\uc810", "type": "\uc911\ud654\uc694\ub9ac", "star": 4.3, "reply": 13, "review": 39, "tvshow": "", "address": "\uc11c\uc6b8 \uc911\uad6c \ubb34\uad50\ub85c 14 \uc601\ubbf8\ube4c\ub529 2\uce35", "lat": "37.56713967998075", "lng": "126.97937659147534", "url": "https://place.map.kakao.com/m/1820798534", "category": ["\uc74c\uc2dd\uc810 ", " \uc911\uc2dd ", " \uc911\ud654\uc694\ub9ac ", " \ud53c\uc288\ub9c8\ub77c\ud64d\ud0d5"]}, {"name": "\uc9c4\uc9c4\uc218\ub77c \uad11\ud654\ubb38\uc810", "type": "\ud55c\uc815\uc2dd", "star": 3.9, "reply": 38, "review": 251, "tvshow": "", "address": "\uc11c\uc6b8 \uc885\ub85c\uad6c \uc885\ub85c5\uae38 7 \ud0c0\uc6cc8\ube4c\ub529 \uc9c0\ud558 2\uce35 201-206\ud638", "lat": "37.5706357409413", "lng": "126.980543813707", "url": "https://place.map.kakao.com/m/967729291", "category": ["\uc74c\uc2dd\uc810 ", " \ud55c\uc2dd ", " \ud55c\uc815\uc2dd"]}, {"name": "\ud6c4\ub2c8\ub3c4\ub2c8", "type": "\ub3c8\uae4c\uc2a4,\uc6b0\ub3d9", "star": 4.5, "reply": 108, "review": 171, "tvshow": "", "address": "\uc11c\uc6b8 \uc885\ub85c\uad6c \uc885\ub85c 19 \ub974\uba54\uc774\ub974\uc885\ub85c\ud0c0\uc6b4 \uc9c0\ud5581\uce35", "lat": "37.570887916904596", "lng": "126.97993022190258", "url": "https://place.map.kakao.com/m/27271374", "category": ["\uc74c\uc2dd\uc810 ", " \uc77c\uc2dd ", " \ub3c8\uae4c\uc2a4,\uc6b0\ub3d9"]}, {"name": "\uad11\ud654\ubb38\uc9ec\ubf55", "type": "\uc911\ud654\uc694\ub9ac", "star": 3.6, "reply": 30, "review": 44, "tvshow": "", "address": "\uc11c\uc6b8 \uc885\ub85c\uad6c \uc885\ub85c 19 \ub974\uba54\uc774\uc5d0\ub974\uc885\ub85c\ud0c0\uc6b4 2\uce35", "lat": "37.5709167437448", "lng": "126.97990078301", "url": "https://place.map.kakao.com/m/27344401", "category": ["\uc74c\uc2dd\uc810 ", " \uc911\uc2dd ", " \uc911\ud654\uc694\ub9ac"]}, {"name": "\uc2a4\uc2dc\uc18c\ub77c \uad11\ud654\ubb38\uc810", "type": "\uc77c\uc2dd", "star": 3.6, "reply": 47, "review": 168, "tvshow": "", "address": "\uc11c\uc6b8 \uc885\ub85c\uad6c \uc885\ub85c 19 B\ub3d9 \uc9c0\ud5581\uce35", "lat": "37.570563545503084", "lng": "126.9798533355086", "url": "https://place.map.kakao.com/m/1315083198", "category": ["\uc74c\uc2dd\uc810 ", " \uc77c\uc2dd"]}, {"name": "\uc2e0\uc131", "type": "\uc77c\uc2dd\uc9d1", "star": 4.0, "reply": 50, "review": 23, "tvshow": "tv\uc18c\uac1c", "address": "\uc11c\uc6b8 \uc885\ub85c\uad6c \ubb34\uad50\ub85c 42", "lat": "37.5696769009609", "lng": "126.979475503418", "url": "https://place.map.kakao.com/m/16413731", "category": ["\uc74c\uc2dd\uc810 ", " \uc77c\uc2dd ", " \uc77c\uc2dd\uc9d1"]}, {"name": "\ucfe0\ucc28\ub77c \uc885\ub85c\uc810", "type": "\uba55\uc2dc\uce78,\ube0c\ub77c\uc9c8", "star": 4.2, "reply": 38, "review": 87, "tvshow": "", "address": "\uc11c\uc6b8 \uc885\ub85c\uad6c \uc885\ub85c 33 \uadf8\ub791\uc11c\uc6b8 \uc9c0\ud5581\uce35 101\ud638", "lat": "37.5709088797217", "lng": "126.981394982205", "url": "https://place.map.kakao.com/m/798981473", "category": ["\uc74c\uc2dd\uc810 ", " \uc591\uc2dd ", " \uba55\uc2dc\uce78,\ube0c\ub77c\uc9c8"]}, {"name": "\ub354\ubbf8 \uad11\ud654\ubb38\ubcf8\uc810", "type": "\uc721\ub958,\uace0\uae30", "star": 4.1, "reply": 66, "review": 35, "tvshow": "", "address": "\uc11c\uc6b8 \uc885\ub85c\uad6c \uc885\ub85c 19 \ub974\uba54\uc774\uc5d0\ub974 \uc885\ub85c\ud0c0\uc6b4 3\uce35 316\ud638", "lat": "37.57083835999165", "lng": "126.9799174439799", "url": "https://place.map.kakao.com/m/12572574", "category": ["\uc74c\uc2dd\uc810 ", " \ud55c\uc2dd ", " \uc721\ub958,\uace0\uae30"]}, {"name": "\ubbfc\uc18c \uad11\ud654\ubb38\uc810", "type": "\uc721\ub958,\uace0\uae30", "star": 3.5, "reply": 14, "review": 22, "tvshow": "", "address": "\uc11c\uc6b8 \uc885\ub85c\uad6c \uc885\ub85c 22 \uc778\uc8fc\ube4c\ub529 \uc9c0\ud5581\uce35", "lat": "37.5699400470666", "lng": "126.97979690581", "url": "https://place.map.kakao.com/m/14613498", "category": ["\uc74c\uc2dd\uc810 ", " \ud55c\uc2dd ", " \uc721\ub958,\uace0\uae30"]}, {"name": "\uc6a9\ud638\ub3d9\ub099\uc9c0 \uc885\uac01\uc810", "type": "\ud574\ubb3c,\uc0dd\uc120", "star": 4.0, "reply": 11, "review": 65, "tvshow": "", "address": "\uc11c\uc6b8 \uc885\ub85c\uad6c \uc885\ub85c 33 \uadf8\ub791\uc11c\uc6b8 1\uce35 118~120\ud638", "lat": "37.5708160886069", "lng": "126.981467451116", "url": "https://place.map.kakao.com/m/1531632369", "category": ["\uc74c\uc2dd\uc810 ", " \ud55c\uc2dd ", " \ud574\ubb3c,\uc0dd\uc120"]}, {"name": "\uc18c\uace0\uc0b0\uc81c\uc77c\ub8e8 \uad11\ud654\ubb38\uc810", "type": "\uc911\ud654\uc694\ub9ac", "star": 3.6, "reply": 14, "review": 64, "tvshow": "", "address": "\uc11c\uc6b8 \uc885\ub85c\uad6c \uc885\ub85c5\uae38 7 1\uce35 102\ud638", "lat": "37.5706033080949", "lng": "126.980561933549", "url": "https://place.map.kakao.com/m/400835679", "category": ["\uc74c\uc2dd\uc810 ", " \uc911\uc2dd ", " \uc911\ud654\uc694\ub9ac"]}, {"name": "\uc0ac\uc774\uacf5", "type": "\ub3d9\ub0a8\uc544\uc74c\uc2dd", "star": 3.5, "reply": 59, "review": 51, "tvshow": "", "address": "\uc11c\uc6b8 \uc885\ub85c\uad6c \uc885\ub85c 19 \ub974\uba54\uc774\uc5d0\ub974\uc885\ub85c\ud0c0\uc6b4 A\ub3d9 1\uce35", "lat": "37.5708446679787", "lng": "126.979923441709", "url": "https://place.map.kakao.com/m/18444058", "category": ["\uc74c\uc2dd\uc810 ", " \uc544\uc2dc\uc544\uc74c\uc2dd ", " \ub3d9\ub0a8\uc544\uc74c\uc2dd"]}, {"name": "\ud398\uc774\ud37c\ub9c8\uc250", "type": "\uce74\ud398", "star": 3.5, "reply": 12, "review": 67, "tvshow": "", "address": "\uc11c\uc6b8 \uc885\ub85c\uad6c \ubb34\uad50\ub85c 40", "lat": "37.5695183261601", "lng": "126.979477810824", "url": "https://place.map.kakao.com/m/236480957", "category": ["\uc74c\uc2dd\uc810 ", " \uce74\ud398"]}, {"name": "\ub974\ubca0\ub974\ub514\ub9c8\uce74\ub871", "type": "\uc81c\uacfc,\ubca0\uc774\ucee4\ub9ac", "star": 4.9, "reply": 14, "review": 24, "tvshow": "", "address": "\uc11c\uc6b8 \uc885\ub85c\uad6c \uc885\ub85c 19 \ub974\uba54\uc774\uc5d0\ub974 \uc885\ub85c\ud0c0\uc6b4 \uc9c0\ud5581\uce35 130-1\ud638", "lat": "37.5707987131767", "lng": "126.979899682762", "url": "https://place.map.kakao.com/m/1198882403", "category": ["\uc74c\uc2dd\uc810 ", " \uac04\uc2dd ", " \uc81c\uacfc,\ubca0\uc774\ucee4\ub9ac"]}, {"name": "\ud53c\ub9c8\uae38\ub099\uc9c0\uc2e4\ube44\uc9d1", "type": "\ud574\ubb3c,\uc0dd\uc120", "star": 3.6, "reply": 43, "review": 23, "tvshow": "", "address": "\uc11c\uc6b8 \uc885\ub85c\uad6c \uc885\ub85c3\uae38 24-18", "lat": "37.57146100595", "lng": "126.980262869018", "url": "https://place.map.kakao.com/m/14541727", "category": ["\uc74c\uc2dd\uc810 ", " \ud55c\uc2dd ", " \ud574\ubb3c,\uc0dd\uc120"]}, {"name": "\uc8fc\uc2dc\ube0c\ub85c\uc2a4 \uadf8\ub791\uc11c\uc6b8\uc810", "type": "\uc0dd\uacfc\uc77c\uc804\ubb38\uc810", "star": 3.5, "reply": 13, "review": 32, "tvshow": "", "address": "\uc11c\uc6b8 \uc885\ub85c\uad6c \uc885\ub85c 33 1\uce35 105\ud638", "lat": "37.570676402360476", "lng": "126.9812648641771", "url": "https://place.map.kakao.com/m/1558147253", "category": ["\uc74c\uc2dd\uc810 ", " \uce74\ud398 ", " \uc0dd\uacfc\uc77c\uc804\ubb38\uc810"]}, {"name": "\ud48d\ud669", "type": "\ubca0\ud2b8\ub0a8\uc74c\uc2dd", "star": 4.1, "reply": 21, "review": 45, "tvshow": "", "address": "\uc11c\uc6b8 \uc885\ub85c\uad6c \uc885\ub85c 19 1\uce35 112-2\ud638", "lat": "37.570869877315", "lng": "126.97981476612", "url": "https://place.map.kakao.com/m/1975488134", "category": ["\uc74c\uc2dd\uc810 ", " \uc544\uc2dc\uc544\uc74c\uc2dd ", " \ub3d9\ub0a8\uc544\uc74c\uc2dd ", " \ubca0\ud2b8\ub0a8\uc74c\uc2dd"]}, {"name": "\ud55c\ub9c8\ub8e8", "type": "\uc721\ub958,\uace0\uae30", "star": 3.8, "reply": 12, "review": 32, "tvshow": "tv\uc18c\uac1c", "address": "\uc11c\uc6b8 \uc885\ub85c\uad6c \uc885\ub85c 19 \ub974\uba54\uc774\uc5d0\ub4dc\uc885\ub85c\ud0c0\uc6b4 2\uce35", "lat": "37.570579771329015", "lng": "126.97989974160066", "url": "https://place.map.kakao.com/m/10950824", "category": ["\uc74c\uc2dd\uc810 ", " \ud55c\uc2dd ", " \uc721\ub958,\uace0\uae30"]}, {"name": "\uace0\ub798\uc640", "type": "\uc77c\uc2dd", "star": 4.1, "reply": 12, "review": 29, "tvshow": "", "address": "\uc11c\uc6b8 \uc885\ub85c\uad6c \uc885\ub85c 19 \ub974\uba54\uc774\uc5d0\ub974\uc885\ub85c\ud0c0\uc6b4 2\uce35 212-2\ud638", "lat": "37.5708446679787", "lng": "126.979923441709", "url": "https://place.map.kakao.com/m/838096155", "category": ["\uc74c\uc2dd\uc810 ", " \uc77c\uc2dd"]}, {"name": "\uafc8\ub5a1\uafc8\ub5a1", "type": "\uc591\uc2dd", "star": 4.1, "reply": 10, "review": 24, "tvshow": "", "address": "\uc11c\uc6b8 \uc885\ub85c\uad6c \uc885\ub85c 19", "lat": "37.570563545503084", "lng": "126.9798533355086", "url": "https://place.map.kakao.com/m/1750032308", "category": ["\uc74c\uc2dd\uc810 ", " \uc591\uc2dd"]}, {"name": "\ud3ec\ube44 \uad11\ud654\ubb38\uc810", "type": "\uce74\ud398", "star": 4.1, "reply": 107, "review": 410, "tvshow": "", "address": "\uc11c\uc6b8 \uc885\ub85c\uad6c \uc885\ub85c3\uae38 17 \uad11\ud654\ubb38D\ud0c0\uc6cc 1\uce35 21\ud638", "lat": "37.5710066735133", "lng": "126.978927265534", "url": "https://place.map.kakao.com/m/27187492", "category": ["\uc74c\uc2dd\uc810 ", " \uce74\ud398"]}, {"name": "\ub2e5\ud130\ub85c\ube48 \uad11\ud654\ubb38\uc810", "type": "\uc591\uc2dd", "star": 3.8, "reply": 33, "review": 173, "tvshow": "", "address": "\uc11c\uc6b8 \uc885\ub85c\uad6c \uc885\ub85c3\uae38 17 D\ud0c0\uc6cc 5\uce35 3\ud638", "lat": "37.5713022208879", "lng": "126.979044907501", "url": "https://place.map.kakao.com/m/839834408", "category": ["\uc74c\uc2dd\uc810 ", " \uc591\uc2dd"]}, {"name": "\ud3a0\ud2b8\ucee4\ud53c \uad11\ud654\ubb38\uc810", "type": "\uce74\ud398", "star": 3.5, "reply": 45, "review": 198, "tvshow": "", "address": "\uc11c\uc6b8 \uc885\ub85c\uad6c \uc885\ub85c3\uae38 17 b2\uce35", "lat": "37.5709805434398", "lng": "126.97892048108426", "url": "https://place.map.kakao.com/m/977211586", "category": ["\uc74c\uc2dd\uc810 ", " \uce74\ud398"]}, {"name": "\ube14\ub8e8\ubcf4\ud2c0 \uad11\ud654\ubb38", "type": "\uce74\ud398", "star": 4.2, "reply": 23, "review": 145, "tvshow": "", "address": "\uc11c\uc6b8 \uc885\ub85c\uad6c \uccad\uacc4\ucc9c\ub85c 11 \uccad\uacc4\ud55c\uad6d\ube4c\ub529 1\uce35", "lat": "37.5694821789103", "lng": "126.978868833851", "url": "https://place.map.kakao.com/m/146946502", "category": ["\uc74c\uc2dd\uc810 ", " \uce74\ud398"]}, {"name": "\ud55c\uc721\uac10 D\ud0c0\uc6cc\uc810", "type": "\ud55c\uc2dd", "star": 3.5, "reply": 45, "review": 68, "tvshow": "", "address": "\uc11c\uc6b8 \uc885\ub85c\uad6c \uc885\ub85c3\uae38 17 5\uce35", "lat": "37.5710715451676", "lng": "126.978927247256", "url": "https://place.map.kakao.com/m/498307450", "category": ["\uc74c\uc2dd\uc810 ", " \ud55c\uc2dd"]}, {"name": "\ucc28\uc54c \uad11\ud654\ubb38\uc810", "type": "\uc911\ud654\uc694\ub9ac", "star": 3.5, "reply": 26, "review": 63, "tvshow": "", "address": "\uc11c\uc6b8 \uc885\ub85c\uad6c \uc885\ub85c3\uae38 17 3\uce35", "lat": "37.5710030687242", "lng": "126.978922738674", "url": "https://place.map.kakao.com/m/27260716", "category": ["\uc74c\uc2dd\uc810 ", " \uc911\uc2dd ", " \uc911\ud654\uc694\ub9ac"]}, {"name": "\uc628\ub354\ubcf4\ub354 \uad11\ud654\ubb38D\ud0c0\uc6cc\uc810", "type": "\uba55\uc2dc\uce78,\ube0c\ub77c\uc9c8", "star": 3.5, "reply": 55, "review": 170, "tvshow": "", "address": "\uc11c\uc6b8 \uc885\ub85c\uad6c \uc885\ub85c3\uae38 17 D\ud0c0\uc6cc 2\uce35 4\ud638", "lat": "37.57066252472346", "lng": "126.97910394884114", "url": "https://place.map.kakao.com/m/26857706", "category": ["\uc74c\uc2dd\uc810 ", " \uc591\uc2dd ", " \uba55\uc2dc\uce78,\ube0c\ub77c\uc9c8 ", " \uc628\ub354\ubcf4\ub354"]}, {"name": "\ubca4\uc2a4\ucfe0\ud0a4 \uad11\ud654\ubb38\ub514\ud0c0\uc6cc\uc810", "type": "\uc81c\uacfc,\ubca0\uc774\ucee4\ub9ac", "star": 4.5, "reply": 25, "review": 28, "tvshow": "", "address": "\uc11c\uc6b8 \uc885\ub85c\uad6c \uc885\ub85c3\uae38 17", "lat": "37.5710715451676", "lng": "126.978927247256", "url": "https://place.map.kakao.com/m/115860456", "category": ["\uc74c\uc2dd\uc810 ", " \uac04\uc2dd ", " \uc81c\uacfc,\ubca0\uc774\ucee4\ub9ac"]}, {"name": "\ub355\ud6c4\uc120\uc0dd \uad11\ud654\ubb38\uc810", "type": "\uc911\uc2dd", "star": 4.3, "reply": 15, "review": 49, "tvshow": "", "address": "\uc11c\uc6b8 \uc885\ub85c\uad6c \uc885\ub85c3\uae38 17 4\uce35", "lat": "37.5710679411868", "lng": "126.978927248272", "url": "https://place.map.kakao.com/m/1758366707", "category": ["\uc74c\uc2dd\uc810 ", " \uc911\uc2dd"]}, {"name": "\ud3f4\ub9ac\uc2a4 \uad11\ud654\ubb38D\ud0c0\uc6cc\uc810", "type": "\uc74c\uc2dd\uc810", "star": 3.6, "reply": 34, "review": 95, "tvshow": "", "address": "\uc11c\uc6b8 \uc885\ub85c\uad6c \uc885\ub85c3\uae38 17", "lat": "37.5710679411868", "lng": "126.978927248272", "url": "https://place.map.kakao.com/m/391552839", "category": ["\uc74c\uc2dd\uc810"]},